{
  "version": 0.6,
  "generator": "Overpass API 0.7.62.8 e802775f",
  "osm3s": {
    "timestamp_osm_base": "2025-11-04T06:34:28Z",
    "copyright": "The data included in this document is from www.openstreetmap.org. The data is made available under ODbL."
  },
  "elements": [
    {
      "type": "node",
      "id": 445965803,
      "lat": 41.1133639,
      "lon": -81.578618,
      "tags": {
        "amenity": "restaurant",
        "name": "Ken Stewart's"
      }
    },
    {
      "type": "node",
      "id": 539130004,
      "lat": 41.1132883,
      "lon": -81.5784014,
      "tags": {
        "amenity": "bar",
        "name": "Larry's Main Entrance",
        "note": "The name is literally \"Larry's Main Entrance\""
      }
    },
    {
      "type": "node",
      "id": 911521011,
      "lat": 41.1373339,
      "lon": -81.5485525,
      "tags": {
        "amenity": "restaurant",
        "name": "da Bayou"
      }
    },
    {
      "type": "node",
      "id": 911521012,
      "lat": 41.1370914,
      "lon": -81.5484452,
      "tags": {
        "amenity": "restaurant",
        "name": "Vine Valley Mediterranean Cuisine"
      }
    },
    {
      "type": "node",
      "id": 911521031,
      "lat": 41.136647,
      "lon": -81.5525114,
      "tags": {
        "amenity": "pub",
        "name": "Brubaker's"
      }
    },
    {
      "type": "node",
      "id": 911521032,
      "lat": 41.1364369,
      "lon": -81.5526509,
      "tags": {
        "amenity": "pub",
        "name": "Bourbon Street"
      }
    },
    {
      "type": "node",
      "id": 911521350,
      "lat": 41.1367448,
      "lon": -81.5527904,
      "tags": {
        "amenity": "pub",
        "name": "Johnny J's Pub & Grille"
      }
    },
    {
      "type": "node",
      "id": 911521351,
      "lat": 41.1367763,
      "lon": -81.5532303,
      "tags": {
        "amenity": "pub",
        "name": "Big Fish"
      }
    },
    {
      "type": "node",
      "id": 911521352,
      "lat": 41.1366632,
      "lon": -81.5533268,
      "tags": {
        "amenity": "pub",
        "name": "The Dorm"
      }
    },
    {
      "type": "node",
      "id": 911521374,
      "lat": 41.1359525,
      "lon": -81.5531193,
      "tags": {
        "amenity": "restaurant",
        "cuisine": "indian",
        "name": "Saffron Patch"
      }
    },
    {
      "type": "node",
      "id": 911522531,
      "lat": 41.1320007,
      "lon": -81.5491104,
      "tags": {
        "amenity": "pub",
        "name": "The Noisy Oyster"
      }
    },
    {
      "type": "node",
      "id": 911523011,
      "lat": 41.1344572,
      "lon": -81.5485632,
      "tags": {
        "amenity": "pub",
        "name": "The Getaway Pub"
      }
    },
    {
      "type": "node",
      "id": 944649483,
      "lat": 41.140498,
      "lon": -81.3564348,
      "tags": {
        "addr:city": "Kent",
        "addr:housenumber": "1443",
        "addr:postcode": "44240-3847",
        "addr:state": "OH",
        "addr:street": "South Water Street",
        "alt_name": "Dairy Queen",
        "amenity": "fast_food",
        "brand": "DQ Grill & Chill",
        "brand:wikidata": "Q1141226",
        "cuisine": "ice_cream;burger",
        "name": "DQ Grill & Chill",
        "phone": "+1 330-678-0246",
        "takeaway": "yes",
        "website": "https://www.dairyqueen.com/locations/oh/kent/1443-s-water-st/14304"
      }
    },
    {
      "type": "node",
      "id": 944649500,
      "lat": 41.1457489,
      "lon": -81.4733791,
      "tags": {
        "amenity": "fast_food",
        "name": "Jubilee Donuts"
      }
    },
    {
      "type": "node",
      "id": 1064712914,
      "lat": 41.1397728,
      "lon": -81.4911495,
      "tags": {
        "amenity": "restaurant",
        "brand": "Meson Sandwiches",
        "cuisine": "mexican",
        "name": "El Meson",
        "not:brand:wikidata": "Q5351585",
        "takeaway": "yes",
        "wheelchair": "yes"
      }
    },
    {
      "type": "node",
      "id": 1064713373,
      "lat": 41.1589599,
      "lon": -81.5097613,
      "tags": {
        "amenity": "restaurant",
        "name": "Mandarin House"
      }
    },
    {
      "type": "node",
      "id": 1064713666,
      "lat": 41.1311428,
      "lon": -81.5088198,
      "tags": {
        "addr:city": "Cuyahoga Falls",
        "addr:housenumber": "1792",
        "addr:postcode": "44223",
        "addr:state": "OH",
        "addr:street": "State Road",
        "alt_name": "Kentucky Fried Chicken",
        "amenity": "fast_food",
        "brand": "KFC",
        "brand:wikidata": "Q524757",
        "cuisine": "chicken",
        "internet_access": "wlan",
        "name": "KFC",
        "opening_hours": "Su-Th 10:30-23:30; Fr-Sa 10:30-24:00",
        "takeaway": "yes",
        "website": "https://locations.kfc.com/oh/cuyahoga-falls/1792-state-road"
      }
    },
    {
      "type": "node",
      "id": 1064713794,
      "lat": 41.1310782,
      "lon": -81.5077362,
      "tags": {
        "addr:city": "Cuyahoga Falls",
        "addr:housenumber": "1787",
        "addr:postcode": "44223-1305",
        "addr:state": "OH",
        "addr:street": "State Road",
        "amenity": "fast_food",
        "brand": "McDonald's",
        "brand:website": "https://www.mcdonalds.com/",
        "brand:wikidata": "Q38076",
        "cuisine": "burger",
        "drive_through": "yes",
        "internet_access": "wlan",
        "name": "McDonald's",
        "opening_hours": "Mo-Sa 05:00-23:00; Su 06:00-23:00",
        "phone": "+1 330-923-3348",
        "takeaway": "yes",
        "website": "https://www.mcdonalds.com/us/en-us/location/276.html"
      }
    },
    {
      "type": "node",
      "id": 1455179678,
      "lat": 41.2406635,
      "lon": -81.4426647,
      "tags": {
        "amenity": "restaurant",
        "cuisine": "middle_eastern",
        "indoor_seating": "yes",
        "name": "Alladin's Eatery",
        "opening_hours": "Mo-Th 11:00-22:00; Fr,Sa 11:00-22:30; Su 11:00-21:30",
        "outdoor_seating": "yes"
      }
    },
    {
      "type": "node",
      "id": 1455179687,
      "lat": 41.2420325,
      "lon": -81.442233,
      "tags": {
        "amenity": "restaurant",
        "cuisine": "italian",
        "indoor_seating": "yes",
        "name": "Tomato Grill",
        "opening_hours": "Mo-Fr 11:30-21:00; Sa 12:00-21:00",
        "outdoor_seating": "yes"
      }
    },
    {
      "type": "node",
      "id": 1455179689,
      "lat": 41.2406848,
      "lon": -81.4429207,
      "tags": {
        "addr:city": "Hudson",
        "addr:housenumber": "48",
        "addr:postcode": "44236",
        "addr:state": "OH",
        "addr:street": "Park Lane",
        "amenity": "ice_cream",
        "brand": "Cold Stone Creamery",
        "brand:wikidata": "Q1094923",
        "check_date:opening_hours": "2024-01-09",
        "cuisine": "ice_cream",
        "indoor_seating": "yes",
        "name": "Cold Stone Creamery",
        "opening_hours": "Su-Th 11:00-22:00; Fr-Sa 11:00-23:00",
        "opening_hours:url": "https://www.coldstonecreamery.com/stores/21490",
        "outdoor_seating": "yes",
        "phone": "+13306552990",
        "website": "https://www.coldstonecreamery.com/stores/21490"
      }
    },
    {
      "type": "node",
      "id": 1455179691,
      "lat": 41.2406882,
      "lon": -81.4423608,
      "tags": {
        "amenity": "restaurant",
        "cuisine": "mexican",
        "indoor_seating": "yes",
        "name": "Comida Mexican Restaurant",
        "outdoor_seating": "yes"
      }
    },
    {
      "type": "node",
      "id": 1680344044,
      "lat": 40.927248,
      "lon": -81.4025729,
      "tags": {
        "addr:housenumber": "3140",
        "addr:postcode": "44630",
        "addr:street": "State Street NW",
        "amenity": "pub",
        "internet_access": "wlan",
        "internet_access:fee": "no",
        "name": "First Row Centre for the Arts and Coffee Shop",
        "website": "http://www.firstrowcfa.com"
      }
    },
    {
      "type": "node",
      "id": 1890430790,
      "lat": 41.0953358,
      "lon": -81.3883985,
      "tags": {
        "addr:city": "Kent",
        "addr:housenumber": "3975",
        "addr:postcode": "44240",
        "addr:state": "OH",
        "addr:street": "Cascades Boulevard",
        "amenity": "bar",
        "name": "The Basement"
      }
    },
    {
      "type": "node",
      "id": 1890430834,
      "lat": 41.0999265,
      "lon": -81.3859343,
      "tags": {
        "addr:city": "Kent",
        "addr:housenumber": "4050",
        "addr:postcode": "44240-8034",
        "addr:state": "OH",
        "addr:street": "Cascades Boulevard",
        "addr:unit": "A",
        "alt_name": "Dairy Queen",
        "amenity": "fast_food",
        "brand": "DQ Grill & Chill",
        "brand:wikidata": "Q1141226",
        "cuisine": "ice_cream;burger",
        "name": "DQ Grill & Chill",
        "phone": "+1 330-968-6155",
        "takeaway": "yes",
        "website": "https://www.dairyqueen.com/locations/oh/kent/4050-cascades-blvd-unit-a/14293"
      }
    },
    {
      "type": "node",
      "id": 1890430843,
      "lat": 41.0961011,
      "lon": -81.3883571,
      "tags": {
        "addr:city": "Kent",
        "addr:housenumber": "3975",
        "addr:postcode": "44240",
        "addr:state": "OH",
        "addr:street": "Cascades Boulevard",
        "amenity": "restaurant",
        "cuisine": "mexican",
        "name": "La Terraza Mexican Bar & Grill"
      }
    },
    {
      "type": "node",
      "id": 1909606906,
      "lat": 41.1019995,
      "lon": -81.3459376,
      "tags": {
        "addr:city": "Kent",
        "addr:housenumber": "4118",
        "addr:postcode": "44240",
        "addr:state": "OH",
        "addr:street": "State Highway 43",
        "amenity": "restaurant",
        "brand": "Pizza Hut",
        "brand:wikidata": "Q191615",
        "cuisine": "pizza",
        "name": "Pizza Hut",
        "phone": "+1 330-677-6767",
        "website": "https://locations.pizzahut.com/oh/kent/4118-state-hwy-43"
      }
    },
    {
      "type": "node",
      "id": 1909606958,
      "lat": 41.1005633,
      "lon": -81.3434773,
      "tags": {
        "addr:city": "Kent",
        "addr:housenumber": "4068",
        "addr:postcode": "44240",
        "addr:state": "OH",
        "addr:street": "State Route 43",
        "amenity": "fast_food",
        "brand": "Subway",
        "brand:wikidata": "Q244457",
        "cuisine": "sandwich",
        "name": "Subway",
        "opening_hours": "08:00-21:00",
        "phone": "+1 330-346-0204",
        "takeaway": "yes",
        "website": "https://restaurants.subway.com/united-states/oh/kent/4068-sr-43"
      }
    },
    {
      "type": "node",
      "id": 2030590407,
      "lat": 41.2509978,
      "lon": -81.3635032,
      "tags": {
        "addr:city": "Streetsboro",
        "addr:housenumber": "9754",
        "addr:postcode": "44241",
        "addr:state": "OH",
        "addr:street": "State Route 14",
        "amenity": "fast_food",
        "brand": "Chipotle",
        "brand:wikidata": "Q465751",
        "cuisine": "mexican",
        "indoor_seating": "yes",
        "name": "Chipotle",
        "official_name": "Chipotle Mexican Grill",
        "opening_hours": "Mo-Su 10:45-23:00",
        "outdoor_seating": "yes",
        "phone": "+1 330-626-3549",
        "takeaway": "yes",
        "website": "https://locations.chipotle.com/oh/streetsboro/9754-state-route-14"
      }
    },
    {
      "type": "node",
      "id": 2030590612,
      "lat": 41.2516314,
      "lon": -81.364547,
      "tags": {
        "addr:city": "Streetsboro",
        "addr:housenumber": "9780",
        "addr:postcode": "44241",
        "addr:state": "OH",
        "addr:street": "State Route 14",
        "amenity": "fast_food",
        "brand": "Sonic",
        "brand:wikidata": "Q7561808",
        "cuisine": "burger",
        "drive_in": "yes",
        "indoor_seating": "yes",
        "name": "Sonic",
        "opening_hours": "Su-Th 10:00-23:00; Fr,Sa 10:00-12:00",
        "outdoor_seating": "yes",
        "takeaway": "yes",
        "website": "https://locations.sonicdrivein.com/oh/streetsboro/9780-state-route-14.html"
      }
    },
    {
      "type": "node",
      "id": 2105023766,
      "lat": 41.1343194,
      "lon": -81.5080726,
      "tags": {
        "amenity": "restaurant",
        "cuisine": "japanese",
        "name": "Chiban"
      }
    },
    {
      "type": "node",
      "id": 2105026712,
      "lat": 41.1319386,
      "lon": -81.508141,
      "tags": {
        "amenity": "fast_food",
        "cuisine": "fish_and_chips",
        "name": "Arthur Treacher's Fish and Chips"
      }
    },
    {
      "type": "node",
      "id": 2105027062,
      "lat": 41.1336861,
      "lon": -81.5081222,
      "tags": {
        "addr:city": "Cuyahoga Falls",
        "addr:housenumber": "1939",
        "addr:postcode": "44223",
        "addr:state": "OH",
        "addr:street": "State Road",
        "amenity": "fast_food",
        "brand": "Subway",
        "brand:wikidata": "Q244457",
        "cuisine": "sandwich",
        "name": "Subway",
        "opening_hours": "09:00-22:00",
        "phone": "+1 330-805-4779",
        "takeaway": "yes",
        "website": "https://restaurants.subway.com/united-states/oh/cuyahoga-falls/1939-state-road"
      }
    },
    {
      "type": "node",
      "id": 2105027376,
      "lat": 41.1288405,
      "lon": -81.5077494,
      "tags": {
        "amenity": "restaurant",
        "cuisine": "seafood",
        "name": "Chowder House"
      }
    },
    {
      "type": "node",
      "id": 2105029469,
      "lat": 41.1511409,
      "lon": -81.5090103,
      "tags": {
        "addr:city": "Cuyahoga Falls",
        "addr:housenumber": "2924",
        "addr:postcode": "44223",
        "addr:state": "OH",
        "addr:street": "State Road",
        "amenity": "fast_food",
        "brand": "Subway",
        "brand:wikidata": "Q244457",
        "cuisine": "sandwich",
        "name": "Subway",
        "opening_hours": "08:30-21:30",
        "phone": "+1 330-929-5020",
        "takeaway": "yes",
        "website": "https://restaurants.subway.com/united-states/oh/cuyahoga-falls/2924-state-road"
      }
    },
    {
      "type": "node",
      "id": 2172101233,
      "lat": 41.0790239,
      "lon": -81.5207175,
      "tags": {
        "amenity": "pub",
        "check_date": "2025-09-21",
        "indoor_seating": "yes",
        "name": "Barley House",
        "outdoor_seating": "yes",
        "wheelchair": "yes"
      }
    },
    {
      "type": "node",
      "id": 2331689880,
      "lat": 41.0513199,
      "lon": -81.39896,
      "tags": {
        "amenity": "restaurant",
        "cuisine": "american",
        "name": "Wildcat Cafe"
      }
    },
    {
      "type": "node",
      "id": 2380825988,
      "lat": 41.0969622,
      "lon": -81.5438491,
      "tags": {
        "addr:city": "Akron",
        "addr:housenumber": "825",
        "addr:postcode": "44303",
        "addr:state": "OH",
        "addr:street": "West Market Street",
        "amenity": "fast_food",
        "brand": "Chipotle",
        "brand:wikidata": "Q465751",
        "cuisine": "mexican",
        "diet:vegan": "yes",
        "diet:vegetarian": "yes",
        "name": "Chipotle",
        "official_name": "Chipotle Mexican Grill",
        "phone": "+1 330-374-0204",
        "takeaway": "yes",
        "website": "https://locations.chipotle.com/oh/akron/825-w-market-st"
      }
    },
    {
      "type": "node",
      "id": 2380825990,
      "lat": 41.0970972,
      "lon": -81.5442019,
      "tags": {
        "amenity": "restaurant",
        "cuisine": "breakfast",
        "indoor_seating": "yes",
        "name": "Wally Waffle",
        "outdoor_seating": "yes"
      }
    },
    {
      "type": "node",
      "id": 2380825993,
      "lat": 41.0970568,
      "lon": -81.5440889,
      "tags": {
        "addr:city": "Akron",
        "addr:housenumber": "837",
        "addr:postcode": "44303",
        "addr:state": "OH",
        "addr:street": "West Market Street",
        "amenity": "restaurant",
        "brand:wikipedia": "en:Next plc",
        "cuisine": "jamaican",
        "indoor_seating": "yes",
        "name": "Irie Jamaican Kitchen",
        "opening_hours": "Tu-Su 11:00-22:00",
        "outdoor_seating": "yes",
        "phone": "+1-330-333-9020",
        "website": "https://www.iriejakitchen.com/"
      }
    },
    {
      "type": "node",
      "id": 2380825994,
      "lat": 41.0970159,
      "lon": -81.5439845,
      "tags": {
        "addr:city": "Akron",
        "addr:housenumber": "835",
        "addr:postcode": "44303",
        "addr:state": "OH",
        "addr:street": "West Market Street",
        "amenity": "restaurant",
        "cuisine": "pizza",
        "name": "Upper Crust",
        "opening_hours": "Su-Th 11:00-22:00; Fr,Sa 11:00-23:00",
        "phone": "+1-330-510-3030",
        "website": "https://www.uppercrustoh.com/akron"
      }
    },
    {
      "type": "node",
      "id": 2419993489,
      "lat": 41.1476665,
      "lon": -81.3429495,
      "tags": {
        "addr:city": "Kent",
        "addr:state": "OH",
        "amenity": "restaurant",
        "indoor": "room",
        "level": "-1",
        "name": "The Porch",
        "website": "https://www.kent.edu/dining/student-center-lower-level",
        "wifi": "free"
      }
    },
    {
      "type": "node",
      "id": 2424924290,
      "lat": 41.1476721,
      "lon": -81.3431531,
      "tags": {
        "addr:city": "Kent",
        "amenity": "cafe",
        "cuisine": "coffee_shop",
        "indoor": "yes",
        "internet_access": "yes",
        "level": "-1",
        "name": "Jazzman's Cyber Cafe",
        "smoking": "no",
        "source": "Survey",
        "website": "https://www.kent.edu/dining/student-center-lower-level",
        "wifi": "free"
      }
    },
    {
      "type": "node",
      "id": 2434607393,
      "lat": 41.1478389,
      "lon": -81.3431676,
      "tags": {
        "addr:city": "Kent",
        "addr:state": "OH",
        "amenity": "restaurant",
        "cuisine": "indian",
        "delivery": "no",
        "indoor": "yes",
        "level": "1",
        "name": "The Tandoori Oven",
        "opening_hours": "Mo-Th 08:00-20:00; Fr 08:00-14:00; PH off",
        "source": "Survey",
        "takeaway": "yes",
        "website": "https://www.kent.edu/dining/kent-markets"
      }
    },
    {
      "type": "node",
      "id": 2434607395,
      "lat": 41.147842,
      "lon": -81.3431991,
      "tags": {
        "amenity": "restaurant",
        "cuisine": "american",
        "delivery": "no",
        "indoor": "yes",
        "level": "1",
        "name": "Fresh Inspirations",
        "opening_hours": "Mo-Th 08:00-20:00; Fr 08:00-14:00; PH off",
        "takeaway": "yes",
        "website": "https://www.kent.edu/dining/kent-markets"
      }
    },
    {
      "type": "node",
      "id": 2434607396,
      "lat": 41.1478641,
      "lon": -81.343231,
      "tags": {
        "addr:city": "Kent",
        "addr:state": "OH",
        "amenity": "restaurant",
        "cuisine": "italian",
        "delivery": "no",
        "indoor": "yes",
        "level": "1",
        "name": "Olives",
        "opening_hours": "Mo-Th 08:00-20:00; Fr 08:00-14:00; PH off",
        "takeaway": "yes",
        "website": "https://www.kent.edu/dining/kent-markets"
      }
    },
    {
      "type": "node",
      "id": 2434607398,
      "lat": 41.1479035,
      "lon": -81.3432489,
      "tags": {
        "addr:city": "Kent",
        "addr:state": "OH",
        "amenity": "restaurant",
        "cuisine": "burger;american",
        "delivery": "no",
        "indoor": "yes",
        "level": "1",
        "name": "Market Grill",
        "opening_hours": "Mo-Th 08:00-20:00; Fr 08:00-14:00; PH off",
        "takeaway": "yes",
        "website": "https://www.kent.edu/dining/kent-markets"
      }
    },
    {
      "type": "node",
      "id": 2439068995,
      "lat": 41.14998,
      "lon": -81.3467233,
      "tags": {
        "amenity": "restaurant",
        "description": "University dining hall",
        "name": "DI Dining Facility",
        "operator": "Kent State University",
        "website": "https://www.kent.edu/dining/design-innovation-dining"
      }
    },
    {
      "type": "node",
      "id": 2451963743,
      "lat": 41.1543431,
      "lon": -81.3526364,
      "tags": {
        "addr:city": "Kent",
        "addr:state": "OH",
        "amenity": "fast_food",
        "brand": "Penn Station",
        "brand:wikidata": "Q7163311",
        "cuisine": "sandwich",
        "name": "Penn Station",
        "takeaway": "yes"
      }
    },
    {
      "type": "node",
      "id": 2451974646,
      "lat": 41.1545653,
      "lon": -81.3523579,
      "tags": {
        "amenity": "restaurant",
        "cuisine": "pizza",
        "name": "Bruno's Authentic Pizza"
      }
    },
    {
      "type": "node",
      "id": 2452321502,
      "lat": 41.141413,
      "lon": -81.3402224,
      "tags": {
        "addr:city": "Kent",
        "amenity": "restaurant",
        "cuisine": "ice_cream",
        "indoor": "yes",
        "level": "0",
        "name": "Summit Street Cafe",
        "website": "https://www.kent.edu/dining/summit-street-cafe-1"
      }
    },
    {
      "type": "node",
      "id": 2452437694,
      "lat": 41.1472973,
      "lon": -81.3482523,
      "tags": {
        "addr:city": "Kent",
        "addr:state": "OH",
        "amenity": "cafe",
        "cuisine": "sandwich",
        "internet_access": "yes",
        "name": "snackshop",
        "note": "Name stylized to all lowercase letters. SnackShop or Snackshop is wrong.",
        "old_name": "Schwartz Cafe"
      }
    },
    {
      "type": "node",
      "id": 2454834434,
      "lat": 41.241447,
      "lon": -81.4427605,
      "tags": {
        "amenity": "restaurant",
        "cuisine": "burger",
        "indoor_seating": "yes",
        "name": "Flipside",
        "outdoor_seating": "yes"
      }
    },
    {
      "type": "node",
      "id": 2454834435,
      "lat": 41.2414453,
      "lon": -81.4429141,
      "tags": {
        "amenity": "restaurant",
        "cuisine": "american",
        "name": "One Red Door"
      }
    },
    {
      "type": "node",
      "id": 2464386223,
      "lat": 41.1549171,
      "lon": -81.400949,
      "tags": {
        "amenity": "restaurant",
        "cuisine": "burger",
        "name": "Swensons"
      }
    },
    {
      "type": "node",
      "id": 2468063763,
      "lat": 41.2388845,
      "lon": -81.446488,
      "tags": {
        "addr:city": "Hudson",
        "addr:housenumber": "118",
        "addr:postcode": "44236",
        "addr:state": "OH",
        "addr:street": "West Streetsboro Street",
        "addr:unit": "23",
        "air_conditioning": "yes",
        "amenity": "fast_food",
        "brand": "Panera Bread",
        "brand:wikidata": "Q7130852",
        "cuisine": "sandwich;bakery",
        "indoor_seating": "yes",
        "name": "Panera Bread",
        "opening_hours": "Mo-Sa 06:30-21:00; Su 07:00-20:00",
        "outdoor_seating": "yes",
        "phone": "+1 330-463-5665",
        "short_name": "Panera",
        "takeaway": "yes",
        "website": "https://locations.panerabread.com/oh/hudson/118-w-streetsboro-street.html"
      }
    },
    {
      "type": "node",
      "id": 2496135558,
      "lat": 41.2407088,
      "lon": -81.4432648,
      "tags": {
        "addr:city": "Hudson",
        "addr:postcode": "44236",
        "addr:street": "Library Street",
        "amenity": "restaurant",
        "cuisine": "frozen_yogurt",
        "indoor_seating": "yes",
        "name": "Lulu's",
        "opening_hours": "Mo-Su 12:00-21:00",
        "outdoor_seating": "yes"
      }
    },
    {
      "type": "node",
      "id": 2496135910,
      "lat": 41.240259,
      "lon": -81.4454207,
      "tags": {
        "addr:city": "Hudson",
        "addr:housenumber": "5",
        "addr:postcode": "44236",
        "addr:state": "OH",
        "addr:street": "Atterbury Boulevard",
        "amenity": "fast_food",
        "brand": "Chipotle",
        "brand:wikidata": "Q465751",
        "cuisine": "mexican",
        "indoor_seating": "yes",
        "name": "Chipotle",
        "official_name": "Chipotle Mexican Grill",
        "opening_hours": "Mo-Su 10:45-22:00",
        "outdoor_seating": "yes",
        "phone": "+1 330-342-0669",
        "takeaway": "yes",
        "website": "https://locations.chipotle.com/oh/hudson/5-atterbury-blvd"
      }
    },
    {
      "type": "node",
      "id": 2548226142,
      "lat": 41.1528204,
      "lon": -81.3565359,
      "tags": {
        "addr:city": "Kent",
        "amenity": "restaurant",
        "cuisine": "israeli;mediterranean",
        "diet:vegan": "yes",
        "diet:vegetarian": "yes",
        "name": "Laziza",
        "website": "http://www.yourlaziza.com/"
      }
    },
    {
      "type": "node",
      "id": 2575254710,
      "lat": 41.2446412,
      "lon": -81.3573782,
      "tags": {
        "addr:city": "Streetsboro",
        "addr:housename": "Steak 'N Shake",
        "addr:housenumber": "9545",
        "addr:postcode": "44241",
        "addr:street": "Cleveland East Liverpool Road",
        "amenity": "fast_food",
        "check_date": "2024-01-16",
        "cuisine": "chicken",
        "name": "Slim Chickens",
        "outdoor_seating": "no",
        "phone": "330-548-9456",
        "takeaway": "yes",
        "website": "https://slimchickens.com/"
      }
    },
    {
      "type": "node",
      "id": 2575279364,
      "lat": 41.2397236,
      "lon": -81.3428393,
      "tags": {
        "addr:city": "Streetsboro",
        "addr:housename": "Dunkin Donuts",
        "addr:housenumber": "9168",
        "addr:postcode": "44241",
        "addr:state": "OH",
        "addr:street": "Cleve E Liverpool Road",
        "alt_name": "Dunkin' Donuts",
        "amenity": "fast_food",
        "brand": "Dunkin'",
        "brand:wikidata": "Q847743",
        "cuisine": "donut;coffee_shop",
        "drive_through": "yes",
        "internet_access": "yes",
        "name": "Dunkin' Donuts",
        "opening_hours": "04:00-21:00",
        "phone": "+1 330-422-1155",
        "ref": "338519",
        "takeaway": "yes",
        "website": "https://locations.dunkindonuts.com/en/oh/streetsboro/9168-state-route-14/338519"
      }
    },
    {
      "type": "node",
      "id": 2575281722,
      "lat": 41.2397397,
      "lon": -81.3427937,
      "tags": {
        "addr:city": "Streetsboro",
        "addr:housename": "Baskin Robbina",
        "addr:housenumber": "9168",
        "addr:postcode": "44241",
        "addr:state": "OH",
        "addr:street": "Cleve E Liverpool Road",
        "amenity": "ice_cream",
        "brand": "Baskin-Robbins",
        "brand:wikidata": "Q584601",
        "cuisine": "ice_cream",
        "indoor_seating": "yes",
        "internet_access": "yes",
        "name": "Baskin-Robbins",
        "opening_hours": "04:00-21:00",
        "outdoor_seating": "yes",
        "phone": "+1 330-422-1155",
        "website": "https://locations.baskinrobbins.com/oh/streetsboro/9168-state-route-14"
      }
    },
    {
      "type": "node",
      "id": 2575282052,
      "lat": 41.2388725,
      "lon": -81.3415947,
      "tags": {
        "addr:city": "Streetsboro",
        "addr:housename": "Wendys",
        "addr:housenumber": "9143",
        "addr:postcode": "44241",
        "addr:street": "Cleveland East Liverpool Road",
        "amenity": "fast_food",
        "brand": "Wendy's",
        "brand:wikidata": "Q550258",
        "cuisine": "burger",
        "drive_through": "yes",
        "fixme:atp": "no ATP match, check if still exists",
        "name": "Wendy's",
        "phone": "+1 330-626-1170",
        "takeaway": "yes"
      }
    },
    {
      "type": "node",
      "id": 2575282770,
      "lat": 41.2388886,
      "lon": -81.3422143,
      "tags": {
        "addr:city": "Streetsboro",
        "addr:housename": "El Campesino Mexican Restaurant",
        "addr:housenumber": "9169",
        "addr:postcode": "44241",
        "addr:street": "Cleve E Liverpool Road",
        "amenity": "restaurant",
        "cuisine": "mexican",
        "name": "El Campesino Mexican Restaurant",
        "phone": "+1-330-626-9777",
        "website": "http://www.elcampesinostow.com"
      }
    },
    {
      "type": "node",
      "id": 2575286323,
      "lat": 41.2389486,
      "lon": -81.3434508,
      "tags": {
        "addr:city": "Streetsboro",
        "addr:housename": "Taco Bell",
        "addr:housenumber": "9223",
        "addr:postcode": "44241",
        "addr:state": "OH",
        "addr:street": "Cleve E Liverpool Road",
        "amenity": "fast_food",
        "brand": "Taco Bell",
        "brand:wikidata": "Q752941",
        "cuisine": "tex-mex",
        "name": "Taco Bell",
        "phone": "+1 330-626-2409",
        "takeaway": "yes",
        "website": "https://locations.tacobell.com/oh/streetsboro/9223-st-rte-14.html"
      }
    },
    {
      "type": "node",
      "id": 2709093484,
      "lat": 41.0222962,
      "lon": -81.5258601,
      "tags": {
        "addr:city": "Akron",
        "addr:housenumber": "2383",
        "addr:postcode": "44319",
        "addr:state": "OH",
        "addr:street": "South Main Street",
        "amenity": "restaurant",
        "brand": "Pizza Hut",
        "brand:wikidata": "Q191615",
        "cuisine": "pizza",
        "name": "Pizza Hut",
        "phone": "+1 330-724-2229",
        "website": "https://locations.pizzahut.com/oh/akron/2383-s-main-st"
      }
    },
    {
      "type": "node",
      "id": 2709093526,
      "lat": 41.038955,
      "lon": -81.5265234,
      "tags": {
        "amenity": "pub",
        "name": "kevin o'briens"
      }
    },
    {
      "type": "node",
      "id": 2709093553,
      "lat": 41.0392082,
      "lon": -81.5265165,
      "tags": {
        "amenity": "bar",
        "name": "Stadium Pub"
      }
    },
    {
      "type": "node",
      "id": 2709376777,
      "lat": 41.0291776,
      "lon": -81.5120126,
      "tags": {
        "addr:housenumber": "423",
        "addr:postcode": "44319",
        "addr:street": "East Waterloo Road",
        "amenity": "restaurant",
        "cuisine": "american",
        "name": "Waterloo Restaurant",
        "phone": "(330) 773-5158",
        "website": "https://waterloorestaurant.com/"
      }
    },
    {
      "type": "node",
      "id": 2767085937,
      "lat": 41.2396995,
      "lon": -81.4453315,
      "tags": {
        "addr:city": "hudson",
        "addr:postcode": "44236",
        "amenity": "fast_food",
        "brand": "Bruegger's Bagels",
        "brand:wikidata": "Q4978656",
        "cuisine": "bagel",
        "indoor_seating": "yes",
        "name": "Bruegger's Bagels",
        "opening_hours": "Mo-Su 06:00-14:00",
        "outdoor_seating": "no",
        "short_name": "Bruegger's",
        "takeaway": "yes"
      }
    },
    {
      "type": "node",
      "id": 2793595631,
      "lat": 41.1528372,
      "lon": -81.3571555,
      "tags": {
        "amenity": "cafe",
        "cuisine": "coffee_shop",
        "internet_access": "yes",
        "name": "Tree City Coffee"
      }
    },
    {
      "type": "node",
      "id": 2793595633,
      "lat": 41.1529687,
      "lon": -81.3568737,
      "tags": {
        "addr:housenumber": "175",
        "addr:postcode": "44240",
        "addr:street": "East Erie Street",
        "amenity": "restaurant",
        "cuisine": "breakfast",
        "name": "The Fruit Stand",
        "opening_hours": "Mo-Su 09:00-19:00",
        "phone": "3304747186",
        "website": "https://thefruitstandohio.com/"
      }
    },
    {
      "type": "node",
      "id": 2793639793,
      "lat": 41.1525332,
      "lon": -81.3567518,
      "tags": {
        "amenity": "restaurant",
        "cuisine": "italian",
        "diet:vegetarian": "yes",
        "name": "Bricco"
      }
    },
    {
      "type": "node",
      "id": 2793641019,
      "lat": 41.1525483,
      "lon": -81.3572834,
      "tags": {
        "amenity": "restaurant",
        "cuisine": "burger",
        "diet:vegetarian": "yes",
        "name": "Barflyy"
      }
    },
    {
      "type": "node",
      "id": 2793641021,
      "lat": 41.1525315,
      "lon": -81.3579691,
      "tags": {
        "amenity": "restaurant",
        "cuisine": "mexican",
        "diet:vegetarian": "yes",
        "name": "Fresco"
      }
    },
    {
      "type": "node",
      "id": 2794798756,
      "lat": 41.1536252,
      "lon": -81.3566513,
      "tags": {
        "addr:state": "OH",
        "amenity": "restaurant",
        "brand": "Buffalo Wild Wings",
        "brand:wikidata": "Q509255",
        "cuisine": "wings",
        "name": "Buffalo Wild Wings"
      }
    },
    {
      "type": "node",
      "id": 2794798757,
      "lat": 41.1536266,
      "lon": -81.3567479,
      "tags": {
        "addr:city": "Kent",
        "addr:housenumber": "176",
        "addr:postcode": "44240",
        "addr:state": "OH",
        "addr:street": "East Main Street",
        "addr:unit": "B",
        "amenity": "bar",
        "name": "Beware of the Leopard"
      }
    },
    {
      "type": "node",
      "id": 2794798758,
      "lat": 41.1539359,
      "lon": -81.3567855,
      "tags": {
        "addr:city": "Kent",
        "addr:housenumber": "165",
        "addr:postcode": "44240",
        "addr:state": "OH",
        "addr:street": "East Main Street",
        "amenity": "fast_food",
        "brand": "Jimmy John's",
        "brand:wikidata": "Q1689380",
        "cuisine": "sandwich",
        "indoor_seating": "yes",
        "name": "Jimmy John's",
        "official_name": "Jimmy John's Gourmet Sandwiches",
        "outdoor_seating": "no",
        "phone": "+1 330-677-4200",
        "takeaway": "yes",
        "website": "https://locations.jimmyjohns.com/oh/kent/sandwiches-653.html"
      }
    },
    {
      "type": "node",
      "id": 2797783440,
      "lat": 41.1536211,
      "lon": -81.3577054,
      "tags": {
        "addr:city": "Kent",
        "addr:housenumber": "118",
        "addr:postcode": "44240",
        "addr:street": "East Main Street",
        "amenity": "restaurant",
        "cuisine": "turkish",
        "indoor_seating": "yes",
        "name": "Troy Grille",
        "opening_hours": "Mo-Sa 12:00-20:00",
        "outdoor_seating": "yes",
        "smoking": "no",
        "website": "https://troygrille.com/"
      }
    },
    {
      "type": "node",
      "id": 2797880782,
      "lat": 41.1525594,
      "lon": -81.3574648,
      "tags": {
        "addr:city": "Kent",
        "amenity": "restaurant",
        "cuisine": "pizza",
        "name": "Georgio's"
      }
    },
    {
      "type": "node",
      "id": 2797880785,
      "lat": 41.1523381,
      "lon": -81.3579905,
      "tags": {
        "addr:city": "Kent",
        "addr:housenumber": "104",
        "addr:postcode": "44240",
        "addr:state": "OH",
        "addr:street": "South Water Street",
        "amenity": "restaurant",
        "brand": "D.P. Dough",
        "brand:wikidata": "Q22008973",
        "cuisine": "calzone",
        "delivery": "yes",
        "diet:vegetarian": "yes",
        "name": "D.P. Dough",
        "phone": "+1-330-346-0620",
        "smoking": "no",
        "takeaway": "yes",
        "website": "https://www.dpdough.com/"
      }
    },
    {
      "type": "node",
      "id": 2797880787,
      "lat": 41.1520437,
      "lon": -81.3579949,
      "tags": {
        "addr:city": "kent",
        "addr:housenumber": "116",
        "addr:street": "South Water Street",
        "amenity": "restaurant",
        "cuisine": "mexican",
        "name": "Barrio",
        "website": "https://barrio-tacos.com/"
      }
    },
    {
      "type": "node",
      "id": 2797880788,
      "lat": 41.1519944,
      "lon": -81.3579812,
      "tags": {
        "addr:city": "Kent",
        "addr:housenumber": "112",
        "addr:state": "OH",
        "addr:street": "South Water Street",
        "brand": "Insomnia Cookies",
        "brand:wikidata": "Q16997024",
        "craft": "confectionery",
        "name": "Insomnia Cookies",
        "operator": "insomnia cookies",
        "shop": "pastry"
      }
    },
    {
      "type": "node",
      "id": 2797880792,
      "lat": 41.1516279,
      "lon": -81.3579994,
      "tags": {
        "addr:postcode": "44240",
        "amenity": "pub",
        "check_date": "2024-10-12",
        "cuisine": "sandwich",
        "name": "Panini's",
        "opening_hours": "Mo-Su 11:00-02:30",
        "phone": "3309686204",
        "website": "https://paninisgrill.com/"
      }
    },
    {
      "type": "node",
      "id": 2805301230,
      "lat": 41.1544382,
      "lon": -81.3527689,
      "tags": {
        "amenity": "bar",
        "name": "101 Bottles of Beer on the Wall"
      }
    },
    {
      "type": "node",
      "id": 2867814555,
      "lat": 41.0112033,
      "lon": -81.5533472,
      "tags": {
        "addr:city": "Akron",
        "addr:country": "US",
        "addr:housenumber": "3235",
        "addr:postcode": "44319",
        "addr:state": "OH",
        "addr:street": "Manchester Road",
        "addr:unit": "5",
        "amenity": "fast_food",
        "brand": "Subway",
        "brand:wikidata": "Q244457",
        "cuisine": "sandwich",
        "name": "Subway",
        "opening_hours": "Mo-Th 09:00-22:00; Fr-Sa 09:00-22:30; Su 09:00-22:00",
        "phone": "+1 330-644-5220",
        "takeaway": "yes",
        "website": "https://restaurants.subway.com/united-states/oh/akron/3235-manchester-rd"
      }
    },
    {
      "type": "node",
      "id": 2867821419,
      "lat": 41.0118072,
      "lon": -81.553409,
      "tags": {
        "addr:city": "Akron",
        "addr:housenumber": "3235",
        "addr:postcode": "44319",
        "addr:street": "Manchester Road",
        "amenity": "restaurant",
        "cuisine": "pizza",
        "name": "DA Guild Pizza"
      }
    },
    {
      "type": "node",
      "id": 2905076002,
      "lat": 40.9799568,
      "lon": -81.5340731,
      "tags": {
        "addr:city": "Akron",
        "addr:housenumber": "357",
        "addr:postcode": "44319",
        "addr:street": "West Turkeyfoot Lake Road",
        "amenity": "bar",
        "name": "The Upper Deck Bar & Grill",
        "smoking": "outside"
      }
    },
    {
      "type": "node",
      "id": 2908333328,
      "lat": 40.9015708,
      "lon": -81.1582006,
      "tags": {
        "addr:city": "Alliance",
        "addr:housenumber": "2600",
        "addr:postcode": "44601",
        "addr:state": "OH",
        "addr:street": "West State Street",
        "amenity": "restaurant",
        "brand": "Applebee's Neighborhood Grill & Bar",
        "brand:wikidata": "Q621532",
        "cuisine": "american",
        "name": "Applebee's",
        "official_name": "Applebee's Neighborhood Grill & Bar",
        "opening_hours": "Mo-Th 11:00-24:00; Fr-Sa 11:00-01:00; Su 11:00-24:00",
        "phone": "+1 330-829-1700",
        "website": "https://restaurants.applebees.com/en-us/oh/alliance/2600-w.-state-st.-95062",
        "website:menu": "https://www.applebees.com/en/menu?StoreNumber=95062&action=viewmenu"
      }
    },
    {
      "type": "node",
      "id": 3079567204,
      "lat": 41.1512356,
      "lon": -81.343008,
      "tags": {
        "addr:city": "Kent",
        "amenity": "fast_food",
        "cuisine": "mexican",
        "delivery": "no",
        "drive_through": "no",
        "indoor": "yes",
        "level": "0",
        "name": "Burrito-Del-Rey",
        "smoking": "outside",
        "takeaway": "yes",
        "website": "https://www.kent.edu/dining/prentice-hall"
      }
    },
    {
      "type": "node",
      "id": 3096153557,
      "lat": 41.0763204,
      "lon": -81.5220363,
      "tags": {
        "amenity": "restaurant",
        "brand": "Buffalo Wild Wings",
        "brand:wikidata": "Q509255",
        "check_date": "2025-09-21",
        "cuisine": "wings",
        "name": "Buffalo Wild Wings",
        "short_name": "BW3"
      }
    },
    {
      "type": "node",
      "id": 3096153560,
      "lat": 41.0757779,
      "lon": -81.5224174,
      "tags": {
        "addr:city": "Akron",
        "addr:housenumber": "371",
        "addr:postcode": "44311",
        "addr:state": "OH",
        "addr:street": "South Main Street",
        "amenity": "fast_food",
        "brand": "Jimmy John's",
        "brand:wikidata": "Q1689380",
        "check_date": "2025-09-21",
        "cuisine": "sandwich",
        "name": "Jimmy John's",
        "official_name": "Jimmy John's Gourmet Sandwiches",
        "phone": "+1 330-374-7827",
        "takeaway": "yes",
        "website": "https://locations.jimmyjohns.com/oh/akron/sandwiches-1122.html"
      }
    },
    {
      "type": "node",
      "id": 3096155009,
      "lat": 41.0762232,
      "lon": -81.5217174,
      "tags": {
        "amenity": "restaurant",
        "cuisine": "sushi;thai",
        "name": "Pad Thai"
      }
    },
    {
      "type": "node",
      "id": 3177441786,
      "lat": 41.0795669,
      "lon": -81.5197563,
      "tags": {
        "name": "The Bakery at Hattie's Cafe",
        "shop": "bakery"
      }
    },
    {
      "type": "node",
      "id": 3177441789,
      "lat": 41.0797737,
      "lon": -81.519605,
      "tags": {
        "amenity": "restaurant",
        "check_date": "2025-09-21",
        "name": "The Lockview"
      }
    },
    {
      "type": "node",
      "id": 3177441790,
      "lat": 41.079839,
      "lon": -81.5195569,
      "tags": {
        "amenity": "pub",
        "indoor_seating": "yes",
        "name": "Baxter's",
        "outdoor_seating": "yes"
      }
    },
    {
      "type": "node",
      "id": 3281436571,
      "lat": 41.0887162,
      "lon": -81.5154915,
      "tags": {
        "addr:city": "Akron",
        "addr:housenumber": "21",
        "addr:postcode": "44308",
        "addr:state": "OH",
        "addr:street": "Furnace Street",
        "addr:unit": "402",
        "amenity": "restaurant",
        "indoor_seating": "yes",
        "name": "Dante Boccuzzi Akron",
        "outdoor_seating": "yes"
      }
    },
    {
      "type": "node",
      "id": 3281436597,
      "lat": 41.0878905,
      "lon": -81.5153713,
      "tags": {
        "addr:city": "Akron",
        "addr:housenumber": "105",
        "addr:postcode": "44308",
        "addr:state": "OH",
        "addr:street": "North Main Street",
        "amenity": "restaurant",
        "name": "Luigi's"
      }
    },
    {
      "type": "node",
      "id": 3281436598,
      "lat": 41.0880462,
      "lon": -81.5152882,
      "tags": {
        "addr:city": "Akron",
        "addr:housenumber": "111",
        "addr:postcode": "44308",
        "addr:state": "OH",
        "addr:street": "North Main Street",
        "amenity": "pub",
        "name": "Jilly's Music Room"
      }
    },
    {
      "type": "node",
      "id": 3281436608,
      "lat": 41.0853831,
      "lon": -81.5170165,
      "tags": {
        "addr:city": "Akron",
        "addr:housenumber": "10",
        "addr:postcode": "44308",
        "addr:state": "OH",
        "addr:street": "North Main Street",
        "addr:unit": "A",
        "amenity": "fast_food",
        "brand": "Subway",
        "brand:wikidata": "Q244457",
        "cuisine": "sandwich",
        "name": "Subway",
        "opening_hours": "Mo-Fr 08:00-18:00",
        "phone": "+1 330-374-5101",
        "takeaway": "yes",
        "website": "https://restaurants.subway.com/united-states/oh/akron/10-n-main-st"
      }
    },
    {
      "type": "node",
      "id": 3281436609,
      "lat": 41.0857435,
      "lon": -81.5168614,
      "tags": {
        "addr:city": "Akron",
        "addr:housenumber": "10",
        "addr:postcode": "44308",
        "addr:state": "OH",
        "addr:street": "North Main Street",
        "amenity": "restaurant",
        "name": "Einstein's Bagels"
      }
    },
    {
      "type": "node",
      "id": 3281513561,
      "lat": 41.07609,
      "lon": -81.5214425,
      "tags": {
        "amenity": "restaurant",
        "name": "D.P. Dough Akron"
      }
    },
    {
      "type": "node",
      "id": 3291207183,
      "lat": 41.0812479,
      "lon": -81.5185982,
      "tags": {
        "amenity": "fast_food",
        "indoor_seating": "yes",
        "name": "Eddies Cheesesteak",
        "outdoor_seating": "no"
      }
    },
    {
      "type": "node",
      "id": 3291207198,
      "lat": 41.0821759,
      "lon": -81.5169822,
      "tags": {
        "amenity": "restaurant",
        "name": "Nuevo"
      }
    },
    {
      "type": "node",
      "id": 3309973451,
      "lat": 41.2410705,
      "lon": -81.4406484,
      "tags": {
        "amenity": "restaurant",
        "cuisine": "american",
        "name": "Hudson's Restaurant",
        "wheelchair": "yes"
      }
    },
    {
      "type": "node",
      "id": 3309973453,
      "lat": 41.2411583,
      "lon": -81.4406484,
      "tags": {
        "amenity": "bar",
        "name": "Kepner's Tavern"
      }
    },
    {
      "type": "node",
      "id": 3309975164,
      "lat": 41.2419072,
      "lon": -81.4406414,
      "tags": {
        "Fixme": "what type of point is this?",
        "amenity": "restaurant",
        "indoor_seating": "yes",
        "name": "Downtown 140",
        "outdoor_seating": "yes"
      }
    },
    {
      "type": "node",
      "id": 3309975169,
      "lat": 41.2422057,
      "lon": -81.4406375,
      "tags": {
        "amenity": "cafe",
        "cuisine": "coffee_shop",
        "indoor_seating": "yes",
        "name": "Open Door Coffee Co.",
        "outdoor_seating": "yes"
      }
    },
    {
      "type": "node",
      "id": 3321367215,
      "lat": 41.1292955,
      "lon": -81.4893473,
      "tags": {
        "amenity": "bar",
        "name": "The Boulevard Tavern"
      }
    },
    {
      "type": "node",
      "id": 3321367216,
      "lat": 41.1292722,
      "lon": -81.489673,
      "tags": {
        "amenity": "bar",
        "name": "Chestnut Beer Garden"
      }
    },
    {
      "type": "node",
      "id": 3358757761,
      "lat": 41.1369148,
      "lon": -81.5531724,
      "tags": {
        "amenity": "pub",
        "name": "Mickey's In the Valley"
      }
    },
    {
      "type": "node",
      "id": 3429521281,
      "lat": 41.2781072,
      "lon": -81.0900104,
      "tags": {
        "amenity": "restaurant",
        "name": "Cal's Restaurant and Pizza"
      }
    },
    {
      "type": "node",
      "id": 3763125098,
      "lat": 41.2423121,
      "lon": -81.1778012,
      "tags": {
        "amenity": "fast_food",
        "brand": "Jimmy John's",
        "brand:wikidata": "Q1689380",
        "check_date:opening_hours": "2023-07-29",
        "cuisine": "sandwich",
        "fixme:atp": "no ATP match, check if still exists",
        "name": "Jimmy John's",
        "official_name": "Jimmy John's Gourmet Sandwiches",
        "opening_hours:signed": "no",
        "takeaway": "yes"
      }
    },
    {
      "type": "node",
      "id": 3763125099,
      "lat": 41.2448131,
      "lon": -81.1759212,
      "tags": {
        "addr:city": "Mantua",
        "addr:postcode": "44255",
        "addr:state": "OH",
        "amenity": "fast_food",
        "brand": "Jimmy John's",
        "brand:wikidata": "Q1689380",
        "cuisine": "sandwich",
        "name": "Jimmy John's",
        "official_name": "Jimmy John's Gourmet Sandwiches",
        "phone": "+1 234-405-0941",
        "takeaway": "yes",
        "website": "https://locations.jimmyjohns.com/oh/mantua/sandwiches-4299.html"
      }
    },
    {
      "type": "node",
      "id": 3763125100,
      "lat": 41.2423717,
      "lon": -81.177711,
      "tags": {
        "amenity": "fast_food",
        "brand": "Freshëns",
        "brand:wikidata": "Q88353412",
        "check_date:opening_hours": "2023-07-29",
        "cuisine": "juice;salad",
        "name": "Freshëns",
        "opening_hours:signed": "no",
        "takeaway": "yes"
      }
    },
    {
      "type": "node",
      "id": 3763125101,
      "lat": 41.2447526,
      "lon": -81.1760101,
      "tags": {
        "amenity": "fast_food",
        "brand": "Freshëns",
        "brand:wikidata": "Q88353412",
        "cuisine": "juice;salad",
        "name": "Freshëns",
        "takeaway": "yes"
      }
    },
    {
      "type": "node",
      "id": 3763125102,
      "lat": 41.2424312,
      "lon": -81.1776209,
      "tags": {
        "amenity": "fast_food",
        "brand": "Wendy's",
        "brand:wikidata": "Q550258",
        "check_date:opening_hours": "2023-07-29",
        "cuisine": "burger",
        "fixme:atp": "no ATP match, check if still exists",
        "name": "Wendy's",
        "opening_hours:signed": "no",
        "takeaway": "yes"
      }
    },
    {
      "type": "node",
      "id": 3763125103,
      "lat": 41.244692,
      "lon": -81.1760991,
      "tags": {
        "amenity": "fast_food",
        "brand": "Wendy's",
        "brand:wikidata": "Q550258",
        "cuisine": "burger",
        "fixme:atp": "no ATP match, check if still exists",
        "name": "Wendy's",
        "takeaway": "yes"
      }
    },
    {
      "type": "node",
      "id": 3763125104,
      "lat": 41.2424907,
      "lon": -81.1775307,
      "tags": {
        "addr:city": "Mantua",
        "addr:housenumber": "9250",
        "addr:postcode": "44255",
        "addr:state": "OH",
        "addr:street": "Limeridge Road",
        "alt_name": "Dunkin' Donuts",
        "amenity": "fast_food",
        "brand": "Dunkin'",
        "brand:wikidata": "Q847743",
        "check_date:opening_hours": "2023-07-29",
        "cuisine": "donut;coffee_shop",
        "drive_through": "no",
        "name": "Dunkin'",
        "opening_hours": "05:30-19:00",
        "opening_hours:signed": "no",
        "phone": "+1 234-405-0930",
        "ref": "363401",
        "takeaway": "yes",
        "website": "https://locations.dunkindonuts.com/en/oh/mantua/9250-limeridge-rd/363401"
      }
    },
    {
      "type": "node",
      "id": 3763125105,
      "lat": 41.2446315,
      "lon": -81.176188,
      "tags": {
        "addr:city": "Mantua",
        "addr:housenumber": "9270",
        "addr:postcode": "44255",
        "addr:state": "OH",
        "addr:street": "Limeridge Road",
        "alt_name": "Dunkin' Donuts",
        "amenity": "fast_food",
        "brand": "Dunkin'",
        "brand:wikidata": "Q847743",
        "cuisine": "donut;coffee_shop",
        "drive_through": "no",
        "name": "Dunkin'",
        "opening_hours": "05:30-19:00",
        "phone": "+1 234-405-0942",
        "ref": "363402",
        "takeaway": "yes",
        "website": "https://locations.dunkindonuts.com/en/oh/mantua/9270-limeridge-rd/363402"
      }
    },
    {
      "type": "node",
      "id": 3763127011,
      "lat": 41.2425399,
      "lon": -81.1778008,
      "tags": {
        "amenity": "food_court",
        "check_date:opening_hours": "2023-07-29",
        "name:signed": "no",
        "opening_hours:signed": "no"
      }
    },
    {
      "type": "node",
      "id": 3763127257,
      "lat": 41.2445651,
      "lon": -81.1758319,
      "tags": {
        "amenity": "food_court"
      }
    },
    {
      "type": "node",
      "id": 3944663165,
      "lat": 41.0854969,
      "lon": -81.5157896,
      "tags": {
        "addr:city": "Akron",
        "addr:housenumber": "17",
        "addr:postcode": "44308",
        "addr:state": "OH",
        "addr:street": "Maiden Lane",
        "amenity": "restaurant",
        "name": "Urban Eats Cafe"
      }
    },
    {
      "type": "node",
      "id": 3944663167,
      "lat": 41.0850497,
      "lon": -81.5158145,
      "tags": {
        "addr:city": "Akron",
        "addr:housenumber": "57",
        "addr:postcode": "44308",
        "addr:state": "OH",
        "addr:street": "East Market Street",
        "amenity": "restaurant",
        "name": "Crave"
      }
    },
    {
      "type": "node",
      "id": 3944709341,
      "lat": 41.0854207,
      "lon": -81.5155142,
      "tags": {
        "addr:city": "Akron",
        "addr:housenumber": "22",
        "addr:postcode": "44308",
        "addr:state": "OH",
        "addr:street": "North High Street",
        "amenity": "bar",
        "check_date": "2025-09-21",
        "name": "Baxter's Speakeasy",
        "phone": "+1-330-800-0327",
        "website": "https://baxtersspeakeasy.com/"
      }
    },
    {
      "type": "node",
      "id": 4034656190,
      "lat": 41.0996203,
      "lon": -81.3859234,
      "tags": {
        "addr:city": "Kent",
        "addr:housenumber": "4050",
        "addr:postcode": "44240",
        "addr:state": "OH",
        "addr:street": "Cascades Boulevard",
        "amenity": "fast_food",
        "brand": "Chipotle",
        "brand:wikidata": "Q465751",
        "cuisine": "mexican",
        "name": "Chipotle",
        "official_name": "Chipotle Mexican Grill",
        "phone": "+1 330-673-5239",
        "takeaway": "yes",
        "website": "https://locations.chipotle.com/oh/kent/4050-cascades-blvd"
      }
    },
    {
      "type": "node",
      "id": 4071844922,
      "lat": 40.9721819,
      "lon": -81.3601205,
      "tags": {
        "amenity": "restaurant",
        "name": "Hartville Kitchen",
        "phone": "+1 330.877.9353",
        "website": "https://www.hartvillekitchen.com/"
      }
    },
    {
      "type": "node",
      "id": 4207984188,
      "lat": 41.1537027,
      "lon": -81.3363531,
      "tags": {
        "amenity": "fast_food",
        "brand": "Hungry Howie's",
        "brand:wikidata": "Q16985303",
        "cuisine": "pizza",
        "delivery": "yes",
        "drive_through": "no",
        "name": "Hungry Howie's",
        "official_name": "Hungry Howie's Flavor Crust Pizza",
        "takeaway": "yes"
      }
    },
    {
      "type": "node",
      "id": 4207985773,
      "lat": 41.1545238,
      "lon": -81.3352562,
      "tags": {
        "amenity": "fast_food",
        "brand": "Little Caesars",
        "brand:wikidata": "Q1393809",
        "cuisine": "pizza",
        "name": "Little Caesars",
        "takeaway": "yes"
      }
    },
    {
      "type": "node",
      "id": 4207992806,
      "lat": 41.1550385,
      "lon": -81.3339994,
      "tags": {
        "amenity": "restaurant",
        "cuisine": "chinese",
        "name": "Evergreen Buffet"
      }
    },
    {
      "type": "node",
      "id": 4207992807,
      "lat": 41.1550303,
      "lon": -81.3339182,
      "tags": {
        "amenity": "fast_food",
        "brand": "East of Chicago Pizza",
        "brand:wikidata": "Q5329751",
        "cuisine": "pizza",
        "name": "East of Chicago Pizza",
        "takeaway": "yes"
      }
    },
    {
      "type": "node",
      "id": 4207992809,
      "lat": 41.1550344,
      "lon": -81.3337342,
      "tags": {
        "amenity": "restaurant",
        "cuisine": "thai",
        "name": "Wild Papaya"
      }
    },
    {
      "type": "node",
      "id": 4207995156,
      "lat": 41.1543005,
      "lon": -81.3318853,
      "tags": {
        "amenity": "fast_food",
        "name": "Juice And Smoothie Bar"
      }
    },
    {
      "type": "node",
      "id": 4209764278,
      "lat": 41.1560597,
      "lon": -81.3328198,
      "tags": {
        "addr:city": "Kent",
        "addr:housenumber": "1709",
        "addr:postcode": "44240",
        "addr:state": "OH",
        "addr:street": "East Main Street",
        "amenity": "fast_food",
        "brand": "Subway",
        "brand:wikidata": "Q244457",
        "cuisine": "sandwich",
        "indoor_seating": "yes",
        "name": "Subway",
        "opening_hours": "Mo-Su 09:00-22:00",
        "outdoor_seating": "no",
        "phone": "+1 330-673-7821",
        "takeaway": "yes",
        "website": "https://restaurants.subway.com/united-states/oh/kent/1709-e-main-st"
      }
    },
    {
      "type": "node",
      "id": 4210133405,
      "lat": 41.1398047,
      "lon": -81.3593519,
      "tags": {
        "amenity": "restaurant",
        "cuisine": "chinese",
        "name": "China City"
      }
    },
    {
      "type": "node",
      "id": 4213156597,
      "lat": 41.1407408,
      "lon": -81.3565772,
      "tags": {
        "addr:city": "Kent",
        "addr:housenumber": "1413",
        "addr:postcode": "44240",
        "addr:state": "OH",
        "addr:street": "South Water Street",
        "amenity": "fast_food",
        "brand": "Domino's",
        "brand:wikidata": "Q839466",
        "cuisine": "pizza",
        "name": "Domino's",
        "opening_hours": "Mo-Th 10:30-24:00; Fr-Sa 10:30-01:00; Su 10:30-24:00",
        "phone": "+1 330-673-6360",
        "ref": "2401",
        "short_name": "Domino's",
        "takeaway": "yes",
        "website": "https://pizza.dominos.com/ohio/kent/1413-s-water-street"
      }
    },
    {
      "type": "node",
      "id": 4213311240,
      "lat": 41.1528386,
      "lon": -81.3589169,
      "tags": {
        "amenity": "bar",
        "check_date": "2024-10-12",
        "name": "Venice Cafe"
      }
    },
    {
      "type": "node",
      "id": 4213311241,
      "lat": 41.1528396,
      "lon": -81.3587714,
      "tags": {
        "addr:city": "Kent",
        "addr:postcode": "44240",
        "addr:state": "OH",
        "amenity": "restaurant",
        "name": "Erie Street Kitchen",
        "takeaway": "yes"
      }
    },
    {
      "type": "node",
      "id": 4216151265,
      "lat": 41.1392415,
      "lon": -81.3147062,
      "tags": {
        "access": "private",
        "amenity": "fast_food",
        "cuisine": "american",
        "delivery": "no",
        "drive_through": "no",
        "level": "0",
        "name": "The Sideline",
        "operator": "Kent State University",
        "takeaway": "only"
      }
    },
    {
      "type": "node",
      "id": 4216151266,
      "lat": 41.138866,
      "lon": -81.3146988,
      "tags": {
        "access": "private",
        "amenity": "fast_food",
        "cuisine": "american",
        "delivery": "no",
        "drive_through": "no",
        "level": "0",
        "name": "The Sideline",
        "operator": "Kent State University",
        "takeaway": "only"
      }
    },
    {
      "type": "node",
      "id": 4240759678,
      "lat": 41.1511393,
      "lon": -81.3428199,
      "tags": {
        "amenity": "fast_food",
        "cuisine": "sandwich",
        "drive_through": "no",
        "takeaway": "only"
      }
    },
    {
      "type": "node",
      "id": 4582150850,
      "lat": 41.1392233,
      "lon": -81.4386638,
      "tags": {
        "addr:city": "Munroe Falls",
        "addr:housenumber": "14",
        "addr:postcode": "44262",
        "addr:state": "OH",
        "addr:street": "South Main Street",
        "amenity": "fast_food",
        "brand": "Subway",
        "brand:wikidata": "Q244457",
        "cuisine": "sandwich",
        "delivery": "no",
        "name": "Subway",
        "opening_hours": "08:30-20:00",
        "outdoor_seating": "no",
        "phone": "+1 330-688-0711",
        "smoking": "no",
        "takeaway": "yes",
        "website": "https://restaurants.subway.com/united-states/oh/munroe-falls/14-south-main-street"
      }
    },
    {
      "type": "node",
      "id": 4582150851,
      "lat": 41.1390708,
      "lon": -81.43868,
      "tags": {
        "addr:city": "Munroe Falls",
        "addr:housenumber": "14",
        "addr:street": "South Main Street",
        "amenity": "restaurant",
        "cuisine": "chinese",
        "delivery": "no",
        "name": "Great Wall",
        "outdoor_seating": "no",
        "smoking": "no",
        "takeaway": "yes"
      }
    },
    {
      "type": "node",
      "id": 4624580334,
      "lat": 41.2364162,
      "lon": -81.4399885,
      "tags": {
        "addr:city": "Hudson",
        "addr:housenumber": "85",
        "addr:postcode": "44236",
        "addr:state": "OH",
        "addr:street": "South Main Street",
        "amenity": "cafe",
        "branch": "Hudson, South Main Street",
        "brand": "Starbucks",
        "brand:wikidata": "Q37158",
        "cuisine": "coffee_shop",
        "indoor_seating": "yes",
        "name": "Starbucks",
        "official_name": "Starbucks Coffee",
        "outdoor_seating": "yes",
        "phone": "+1 330-293-0425",
        "ref": "8778",
        "takeaway": "yes",
        "website": "https://www.starbucks.com/store-locator/store/8778/hudson-south-main-street-85-south-main-street-hudson-oh-442363073-us"
      }
    },
    {
      "type": "node",
      "id": 4624580347,
      "lat": 41.240175,
      "lon": -81.4452092,
      "tags": {
        "addr:city": "Hudson",
        "addr:postcode": "44236",
        "addr:state": "OH",
        "addr:street": "West Streetsboro Street",
        "amenity": "ice_cream"
      }
    },
    {
      "type": "node",
      "id": 4626517651,
      "lat": 41.2365556,
      "lon": -81.4399886,
      "tags": {
        "addr:city": "Hudson",
        "addr:postcode": "44236",
        "addr:state": "OH",
        "addr:street": "South Main Street",
        "indoor_seating": "yes",
        "name": "Awaken Bake Company",
        "opening_hours": "We-Fr 07:00-20:00; Sa 08:00-20:00; Su 08:00-17:00",
        "outdoor_seating": "yes",
        "shop": "bakery"
      }
    },
    {
      "type": "node",
      "id": 4626517684,
      "lat": 41.2397808,
      "lon": -81.4428763,
      "tags": {
        "addr:city": "Hudson",
        "addr:postcode": "44236",
        "addr:state": "OH",
        "addr:street": "West Streetsboro Street",
        "amenity": "restaurant",
        "cuisine": "pizza",
        "name": "Gionino's Pizzaria",
        "outdoor_seating": "yes"
      }
    },
    {
      "type": "node",
      "id": 4626517685,
      "lat": 41.2398149,
      "lon": -81.4427473,
      "tags": {
        "addr:city": "Hudson",
        "addr:postcode": "44236",
        "addr:state": "OH",
        "addr:street": "West Streetsboro Street",
        "amenity": "restaurant",
        "cuisine": "chinese",
        "name": "Noble House"
      }
    },
    {
      "type": "node",
      "id": 4626517686,
      "lat": 41.2395149,
      "lon": -81.4422084,
      "tags": {
        "addr:city": "Hudson",
        "addr:postcode": "44236",
        "addr:state": "OH",
        "addr:street": "West Streetsboro Street",
        "amenity": "ice_cream",
        "delivery": "no",
        "name": "Hershey's Ice Cream",
        "outdoor_seating": "no"
      }
    },
    {
      "type": "node",
      "id": 4627789874,
      "lat": 41.2378814,
      "lon": -81.4397406,
      "tags": {
        "addr:city": "Hudson",
        "addr:housenumber": "51",
        "addr:postcode": "44326",
        "addr:state": "OH",
        "addr:street": "South Main Street",
        "amenity": "restaurant",
        "cuisine": "donut",
        "name": "Peace, Love, and Little Donuts"
      }
    },
    {
      "type": "node",
      "id": 4627838737,
      "lat": 41.2406856,
      "lon": -81.4422303,
      "tags": {
        "addr:city": "Hudson",
        "addr:housenumber": "34",
        "addr:postcode": "44236",
        "addr:state": "OH",
        "addr:street": "Park Lane",
        "amenity": "restaurant",
        "contact:instagram": "restorehealthbar",
        "cuisine": "juice",
        "name": "Restore Cold Pressed",
        "opening_hours": "Mo-Fr 08:00-15:00; Sa-Su 09:00-15:00",
        "phone": "+1-234-284-8683",
        "website": "https://www.restorecoldpressed.com/",
        "website:menu": "https://order.chownow.com/order/15218/locations/22517"
      }
    },
    {
      "type": "node",
      "id": 4630377474,
      "lat": 41.0032471,
      "lon": -81.4087426,
      "tags": {
        "amenity": "bar",
        "name": "Firehouse",
        "outdoor_seating": "patio"
      }
    },
    {
      "type": "node",
      "id": 4630819210,
      "lat": 41.0741476,
      "lon": -81.5164661,
      "tags": {
        "addr:city": "Akron",
        "addr:country": "US",
        "addr:postcode": "44325",
        "addr:state": "OH",
        "addr:street": "East Exchange Street",
        "amenity": "fast_food",
        "brand": "Steak 'n Shake",
        "brand:wikidata": "Q7605233",
        "check_date": "2017-01-24",
        "cuisine": "burger",
        "name": "Steak 'n Shake",
        "takeaway": "yes"
      }
    },
    {
      "type": "node",
      "id": 4630819212,
      "lat": 41.0741265,
      "lon": -81.516409,
      "tags": {
        "addr:city": "Akron",
        "addr:postcode": "44325",
        "addr:state": "OH",
        "addr:street": "East Exchange Street",
        "amenity": "cafe",
        "brand": "Starbucks",
        "brand:wikidata": "Q37158",
        "cuisine": "coffee_shop",
        "internet_access": "wlan",
        "name": "Starbucks",
        "official_name": "Starbucks Coffee",
        "takeaway": "yes"
      }
    },
    {
      "type": "node",
      "id": 4664795893,
      "lat": 41.2839904,
      "lon": -81.0966419,
      "tags": {
        "amenity": "cafe",
        "cuisine": "coffee_shop",
        "name": "Cellar Door Coffee Company"
      }
    },
    {
      "type": "node",
      "id": 4666302125,
      "lat": 41.2849015,
      "lon": -81.0977169,
      "tags": {
        "amenity": "pub",
        "name": "Sean's Pub"
      }
    },
    {
      "type": "node",
      "id": 4666302126,
      "lat": 41.2875175,
      "lon": -81.1015583,
      "tags": {
        "addr:city": "Garrettsville",
        "addr:housenumber": "7999",
        "addr:postcode": "44231",
        "addr:state": "OH",
        "addr:street": "State Street",
        "amenity": "restaurant",
        "brand": "Pizza Hut",
        "brand:wikidata": "Q191615",
        "cuisine": "pizza",
        "name": "Pizza Hut",
        "phone": "+1 330-527-0909",
        "website": "https://locations.pizzahut.com/oh/garrettsville/7999-state-street"
      }
    },
    {
      "type": "node",
      "id": 4670268410,
      "lat": 41.2845508,
      "lon": -81.0978579,
      "tags": {
        "amenity": "bar",
        "name": "Silver Crik Saloon"
      }
    },
    {
      "type": "node",
      "id": 4670268413,
      "lat": 41.2843178,
      "lon": -81.0974685,
      "tags": {
        "amenity": "restaurant",
        "cuisine": "chinese",
        "name": "Lucky Dragon"
      }
    },
    {
      "type": "node",
      "id": 4670268414,
      "lat": 41.2844756,
      "lon": -81.0977918,
      "tags": {
        "amenity": "restaurant",
        "cuisine": "diner",
        "name": "Fresh Start Diner"
      }
    },
    {
      "type": "node",
      "id": 4670268415,
      "lat": 41.2848511,
      "lon": -81.0983209,
      "tags": {
        "addr:city": "Garrettsville",
        "addr:housenumber": "8094",
        "addr:postcode": "44231",
        "addr:state": "OH",
        "addr:street": "Main Street",
        "amenity": "fast_food",
        "brand": "Subway",
        "brand:wikidata": "Q244457",
        "cuisine": "sandwich",
        "name": "Subway",
        "opening_hours": "09:00-22:00",
        "phone": "+1 330-527-8222",
        "takeaway": "yes",
        "website": "https://restaurants.subway.com/united-states/oh/garrettsville/8094-main-st"
      }
    },
    {
      "type": "node",
      "id": 4670268416,
      "lat": 41.2847028,
      "lon": -81.0980689,
      "tags": {
        "amenity": "restaurant",
        "cuisine": "pizza",
        "name": "Italian Garden"
      }
    },
    {
      "type": "node",
      "id": 4673402146,
      "lat": 41.2387285,
      "lon": -81.4464323,
      "tags": {
        "amenity": "fast_food",
        "brand": "Jersey Mike's Subs",
        "brand:wikidata": "Q6184897",
        "cuisine": "sandwich",
        "indoor_seating": "yes",
        "level": "0",
        "name": "Jersey Mike's Subs",
        "opening_hours": "Mo-Su 10:00-21:00",
        "outdoor_seating": "no",
        "short_name": "Jersey Mike's",
        "takeaway": "yes",
        "website": "https://www.jerseymikes.com/2061/hudson-oh"
      }
    },
    {
      "type": "node",
      "id": 4688275063,
      "lat": 41.1376869,
      "lon": -81.5480042,
      "tags": {
        "addr:city": "Akron",
        "addr:housenumber": "1562",
        "addr:postcode": "44313",
        "addr:state": "OH",
        "addr:street": "Akron Peninsula Road",
        "addr:suite": "120",
        "amenity": "restaurant",
        "name": "Michael's AM",
        "phone": "+1-330-929-3447",
        "website": "https://michaelsam.net/"
      }
    },
    {
      "type": "node",
      "id": 4713659141,
      "lat": 41.2004287,
      "lon": -81.4414635,
      "tags": {
        "addr:city": "Stow",
        "addr:housenumber": "4968",
        "addr:postcode": "44224",
        "addr:state": "OH",
        "addr:street": "Darrow Road",
        "amenity": "fast_food",
        "brand": "Subway",
        "brand:wikidata": "Q244457",
        "cuisine": "sandwich",
        "name": "Subway",
        "opening_hours": "08:30-21:30",
        "phone": "+1 330-655-2400",
        "takeaway": "yes",
        "website": "https://restaurants.subway.com/united-states/oh/stow/4968-darrow-rd"
      }
    },
    {
      "type": "node",
      "id": 4726891677,
      "lat": 41.1487199,
      "lon": -81.508142,
      "tags": {
        "addr:city": "Cuyahoga Falls",
        "addr:housenumber": "2071",
        "addr:postcode": "44223",
        "addr:state": "OH",
        "addr:street": "Portage Trail",
        "addr:unit": "1000",
        "amenity": "cafe",
        "branch": "Portage Trail",
        "brand": "Starbucks",
        "brand:wikidata": "Q37158",
        "cuisine": "coffee_shop",
        "name": "Starbucks",
        "official_name": "Starbucks Coffee",
        "phone": "+1 330-923-4126",
        "ref": "1007744",
        "takeaway": "yes",
        "website": "https://www.starbucks.com/store-locator/store/1007744/portage-trail-2071-portage-trail-space-1000-cuyahoga-falls-oh-44"
      }
    },
    {
      "type": "node",
      "id": 4758403581,
      "lat": 41.0888222,
      "lon": -81.5151401,
      "tags": {
        "addr:city": "Akron",
        "addr:housenumber": "31",
        "addr:postcode": "44308",
        "addr:state": "OH",
        "addr:street": "Furnace Street",
        "amenity": "bar",
        "name": "Northside Speakeasy",
        "opening_hours": "Mo-Th 18:00-23:00, Fr-Sa 18:00-24:00, Su off",
        "phone": "+1-330-375-1630",
        "smoking": "no",
        "website": "https://www.northsidespeakeasy.com/"
      }
    },
    {
      "type": "node",
      "id": 4759750386,
      "lat": 41.1070878,
      "lon": -81.5649003,
      "tags": {
        "addr:city": "Akron",
        "addr:housenumber": "1530",
        "addr:postcode": "44313",
        "addr:state": "OH",
        "addr:street": "West Market Street",
        "amenity": "cafe",
        "cuisine": "coffee_shop",
        "name": "Nervous Dog Coffee Bar",
        "opening_hours": "Mo-Th 06:00-22:00, Fr 06:00-23:00, Sa 07:00-23:00, Su 08:00-20:00"
      }
    },
    {
      "type": "node",
      "id": 4868359194,
      "lat": 41.0726441,
      "lon": -81.5127414,
      "tags": {
        "addr:state": "OH",
        "amenity": "fast_food",
        "brand": "Arby's",
        "brand:wikidata": "Q630866",
        "check_date": "2024-06-21",
        "check_date:opening_hours": "2024-06-08",
        "cuisine": "sandwich",
        "name": "Arby's",
        "opening_hours": "Mo-Su 10:00-22:00",
        "takeaway": "yes",
        "website": "https://www.arbys.com/locations/us/oh/akron/292-e-exchange-street/store-8088/"
      }
    },
    {
      "type": "node",
      "id": 4868359195,
      "lat": 41.072919,
      "lon": -81.513455,
      "tags": {
        "addr:city": "Akron",
        "addr:housenumber": "272",
        "addr:postcode": "44304",
        "addr:state": "OH",
        "addr:street": "East Exchange Street",
        "amenity": "fast_food",
        "brand": "Chipotle",
        "brand:wikidata": "Q465751",
        "cuisine": "mexican",
        "name": "Chipotle",
        "official_name": "Chipotle Mexican Grill",
        "phone": "+1 234-208-2245",
        "takeaway": "yes",
        "website": "https://locations.chipotle.com/oh/akron/272-e-exchange-st"
      }
    },
    {
      "type": "node",
      "id": 4894047623,
      "lat": 40.9155091,
      "lon": -81.4366817,
      "tags": {
        "amenity": "fast_food",
        "brand": "Cinnabon",
        "brand:wikidata": "Q1092539",
        "cuisine": "dessert",
        "internet_access": "wlan",
        "name": "Cinnabon",
        "name:en": "Cinnabon",
        "takeaway": "yes"
      }
    },
    {
      "type": "node",
      "id": 4952925021,
      "lat": 40.9022746,
      "lon": -81.141218,
      "tags": {
        "addr:city": "Alliance",
        "addr:housenumber": "2113",
        "addr:postcode": "44601",
        "addr:state": "OH",
        "addr:street": "West State Street",
        "amenity": "fast_food",
        "brand": "Little Caesars",
        "brand:wikidata": "Q1393809",
        "cuisine": "pizza",
        "drive_through": "no",
        "name": "Little Caesars",
        "opening_hours": "Su-We 09:30-23:00, Fr-Sa 09:30-23:59",
        "outdoor_seating": "no",
        "phone": "+1-330-823-7884",
        "smoking": "no",
        "takeaway": "only"
      }
    },
    {
      "type": "node",
      "id": 4957606364,
      "lat": 40.9022375,
      "lon": -81.1329389,
      "tags": {
        "addr:city": "Alliance",
        "addr:housenumber": "1833",
        "addr:postcode": "44601",
        "addr:state": "OH",
        "addr:street": "West State Street",
        "amenity": "fast_food",
        "brand": "Wendy's",
        "brand:wikidata": "Q550258",
        "cuisine": "burger",
        "drive_through": "yes",
        "indoor_seating": "yes",
        "internet_access": "wlan",
        "name": "Wendy's",
        "opening_hours": "07:00-22:00",
        "opening_hours:drive_through": "Mo-Su 06:30-00:00",
        "outdoor_seating": "no",
        "phone": "+1 330-821-4338",
        "takeaway": "yes",
        "website": "https://locations.wendys.com/united-states/oh/alliance/1833-w-state-st"
      }
    },
    {
      "type": "node",
      "id": 4957606366,
      "lat": 40.9031853,
      "lon": -81.1393372,
      "tags": {
        "amenity": "restaurant",
        "brand": "LongHorn Steakhouse",
        "brand:wikidata": "Q3259007",
        "cuisine": "steak_house",
        "name": "LongHorn Steakhouse"
      }
    },
    {
      "type": "node",
      "id": 4957626621,
      "lat": 41.1462429,
      "lon": -81.4740284,
      "tags": {
        "amenity": "ice_cream",
        "name": "Strickland"
      }
    },
    {
      "type": "node",
      "id": 4968811924,
      "lat": 40.9144072,
      "lon": -81.106327,
      "tags": {
        "addr:city": "Alliance",
        "addr:housenumber": "757",
        "addr:postcode": "44601-2932",
        "addr:state": "OH",
        "addr:street": "South Union Avenue",
        "amenity": "fast_food",
        "brand": "Burger King",
        "brand:wikidata": "Q177054",
        "cuisine": "burger",
        "delivery": "yes",
        "drive_through": "yes",
        "internet_access": "wlan",
        "name": "Burger King",
        "name:en": "Burger King",
        "opening_hours": "Mo-Sa 06:00-22:00; Su 07:00-22:00",
        "phone": "+1 330-821-2726",
        "ref": "1368",
        "takeaway": "yes",
        "website": "https://www.bk.com/store-locator/store/restaurant_705"
      }
    },
    {
      "type": "node",
      "id": 4974058624,
      "lat": 41.1569876,
      "lon": -81.4058215,
      "tags": {
        "addr:city": "Stow",
        "addr:housenumber": "4301",
        "addr:postcode": "44224",
        "addr:state": "OH",
        "addr:street": "Kent Road",
        "addr:unit": "32",
        "amenity": "fast_food",
        "brand": "Subway",
        "brand:wikidata": "Q244457",
        "cuisine": "sandwich",
        "name": "Subway",
        "name:en": "Subway",
        "opening_hours": "Mo-Sa 09:30-21:00; Su 09:30-20:00",
        "phone": "+1 330-688-0827",
        "takeaway": "yes",
        "website": "https://restaurants.subway.com/united-states/oh/stow/4301-kent-rd"
      }
    },
    {
      "type": "node",
      "id": 4974058723,
      "lat": 41.1561641,
      "lon": -81.4058006,
      "tags": {
        "addr:city": "Stow",
        "addr:housenumber": "4338",
        "addr:postcode": "44224",
        "addr:state": "OH",
        "addr:street": "Kent Road",
        "amenity": "fast_food",
        "brand": "Chipotle",
        "brand:wikidata": "Q465751",
        "cuisine": "mexican",
        "diet:vegan": "yes",
        "diet:vegetarian": "yes",
        "name": "Chipotle",
        "name:en": "Chipotle",
        "official_name": "Chipotle Mexican Grill",
        "opening_hours": "Mo-Su 10:45-22:00",
        "phone": "+1 330-686-4945",
        "takeaway": "yes",
        "website": "https://locations.chipotle.com/oh/stow/4338-kent-rd"
      }
    },
    {
      "type": "node",
      "id": 4983262921,
      "lat": 40.9027404,
      "lon": -81.1407417,
      "tags": {
        "amenity": "restaurant",
        "cuisine": "tex-mex",
        "name": "Don Poncho's",
        "name:en": "Don Poncho's",
        "website": "https://www.donpanchostexmexgrill.com/"
      }
    },
    {
      "type": "node",
      "id": 5005478748,
      "lat": 40.9014737,
      "lon": -81.1290297,
      "tags": {
        "addr:city": "Alliance",
        "addr:housenumber": "1630",
        "addr:postcode": "44601",
        "addr:state": "OH",
        "addr:street": "West State Street",
        "amenity": "fast_food",
        "brand": "Chipotle",
        "brand:wikidata": "Q465751",
        "cuisine": "mexican",
        "diet:vegan": "yes",
        "diet:vegetarian": "yes",
        "indoor_seating": "yes",
        "name": "Chipotle",
        "official_name": "Chipotle Mexican Grill",
        "outdoor_seating": "yes",
        "phone": "+1 330-821-4311",
        "takeaway": "yes",
        "website": "https://locations.chipotle.com/oh/alliance/1630-w-state-st"
      }
    },
    {
      "type": "node",
      "id": 5007736923,
      "lat": 40.9026589,
      "lon": -81.1411764,
      "tags": {
        "amenity": "restaurant",
        "cuisine": "american",
        "name": "Rey's Bar & Grill",
        "website": "https://www.reys62.com/"
      }
    },
    {
      "type": "node",
      "id": 5015630498,
      "lat": 40.9014246,
      "lon": -81.1446459,
      "tags": {
        "addr:city": "Alliance",
        "addr:housenumber": "2230",
        "addr:postcode": "44601",
        "addr:state": "OH",
        "addr:street": "West State Street",
        "amenity": "fast_food",
        "brand": "Jimmy John's",
        "brand:wikidata": "Q1689380",
        "cuisine": "sandwich",
        "indoor_seating": "yes",
        "name": "Jimmy John's",
        "official_name": "Jimmy John's Gourmet Sandwiches",
        "outdoor_seating": "no",
        "phone": "+1 330-823-7500",
        "takeaway": "yes",
        "website": "https://locations.jimmyjohns.com/oh/alliance/sandwiches-761.html"
      }
    },
    {
      "type": "node",
      "id": 5020454523,
      "lat": 40.9012084,
      "lon": -81.110174,
      "tags": {
        "addr:state": "OH",
        "amenity": "restaurant",
        "brand": "Buffalo Wild Wings",
        "brand:wikidata": "Q509255",
        "cuisine": "wings",
        "internet_access": "wlan",
        "name": "Buffalo Wild Wings"
      }
    },
    {
      "type": "node",
      "id": 5034945222,
      "lat": 40.9015539,
      "lon": -81.123563,
      "tags": {
        "addr:city": "Alliance",
        "addr:housenumber": "1210",
        "addr:postcode": "44601",
        "addr:state": "OH",
        "addr:street": "West State Street",
        "amenity": "fast_food",
        "branch": "West State St",
        "brand": "Papa John's",
        "brand:wikidata": "Q2759586",
        "cuisine": "pizza",
        "name": "Papa John's",
        "opening_hours": "Mo-Sa 10:30-24:00; Su 10:30-23:00",
        "phone": "+1 330-821-4444",
        "takeaway": "yes",
        "website": "https://locations.papajohns.com/united-states/oh/44601/alliance/1210-w-state-st"
      }
    },
    {
      "type": "node",
      "id": 5037299221,
      "lat": 40.902173,
      "lon": -81.1218239,
      "tags": {
        "amenity": "restaurant",
        "cuisine": "pizza",
        "name": "East of Chicago Pizza"
      }
    },
    {
      "type": "node",
      "id": 5037845538,
      "lat": 41.0306905,
      "lon": -81.2487085,
      "tags": {
        "amenity": "restaurant",
        "cuisine": "pizza;wings;american",
        "name": "Bob's Pizza"
      }
    },
    {
      "type": "node",
      "id": 5042003022,
      "lat": 41.1195828,
      "lon": -81.4794273,
      "tags": {
        "addr:city": "Cuyahoga Falls",
        "addr:housenumber": "371",
        "addr:postcode": "44221",
        "addr:state": "OH",
        "addr:street": "Howe Avenue",
        "addr:unit": "C",
        "amenity": "fast_food",
        "brand": "Chipotle",
        "brand:wikidata": "Q465751",
        "cuisine": "mexican",
        "name": "Chipotle",
        "name:en": "Chipotle",
        "official_name": "Chipotle Mexican Grill",
        "phone": "+1 330-920-1295",
        "takeaway": "yes",
        "website": "https://locations.chipotle.com/oh/cuyahoga-falls/371-howe-ave"
      }
    },
    {
      "type": "node",
      "id": 5042003025,
      "lat": 41.119584,
      "lon": -81.4796722,
      "tags": {
        "addr:city": "Cuyahoga Falls",
        "addr:housenumber": "371",
        "addr:postcode": "44221",
        "addr:state": "OH",
        "addr:street": "Howe Avenue",
        "addr:unit": "A",
        "amenity": "cafe",
        "branch": "Cuyahoga Falls, Howe Street",
        "brand": "Starbucks",
        "brand:wikidata": "Q37158",
        "cuisine": "coffee_shop",
        "name": "Starbucks",
        "name:en": "Starbucks",
        "official_name": "Starbucks Coffee",
        "phone": "+1 330-923-6209",
        "ref": "6597",
        "takeaway": "yes",
        "website": "https://www.starbucks.com/store-locator/store/6597/cuyahoga-falls-howe-street-371-howe-ave-cuyahoga-falls-oh-442214921-us"
      }
    },
    {
      "type": "node",
      "id": 5042020824,
      "lat": 41.1188191,
      "lon": -81.4814235,
      "tags": {
        "addr:city": "Cuyahoga Falls",
        "addr:housenumber": "360",
        "addr:postcode": "44221",
        "addr:state": "OH",
        "addr:street": "Howe Avenue",
        "amenity": "fast_food",
        "brand": "Taco Bell",
        "brand:wikidata": "Q752941",
        "cuisine": "tex-mex",
        "name": "Taco Bell",
        "name:en": "Taco Bell",
        "opening_hours": "Mo 09:00-03:00; Tu 09:00-21:00; We 09:00-03:00; Th-Sa 09:00-04:00; Su 09:00-03:00",
        "phone": "+1 330-928-2626",
        "takeaway": "yes",
        "website": "https://locations.tacobell.com/oh/cuyahoga-falls/360-howe-ave.html"
      }
    },
    {
      "type": "node",
      "id": 5042020825,
      "lat": 41.1187979,
      "lon": -81.4822619,
      "tags": {
        "addr:city": "Cuyahoga Falls",
        "addr:housenumber": "290",
        "addr:postcode": "44221",
        "addr:state": "OH",
        "addr:street": "Howe Avenue",
        "amenity": "fast_food",
        "brand": "Burger King",
        "brand:wikidata": "Q177054",
        "cuisine": "burger",
        "drive_through": "yes",
        "internet_access": "wlan",
        "name": "Burger King",
        "name:en": "Burger King",
        "opening_hours": "Mo-Fr 06:00-22:00; Sa-Su 07:00-22:00",
        "phone": "+1 330-928-0515",
        "ref": "5390",
        "takeaway": "yes",
        "website": "https://www.bk.com/store-locator/store/restaurant_3018"
      }
    },
    {
      "type": "node",
      "id": 5047045844,
      "lat": 41.0093722,
      "lon": -81.5524772,
      "tags": {
        "addr:housenumber": "3333",
        "addr:postcode": "44319",
        "addr:street": "Manchester Road",
        "amenity": "restaurant",
        "contact:facebook": "coventrydiner",
        "cuisine": "diner",
        "name": "Coventry Diner",
        "opening_hours": "We-Fr 07:00-19:00; Sa-Tu 07:00-14:00",
        "phone": "3306447933"
      }
    },
    {
      "type": "node",
      "id": 5047045846,
      "lat": 41.0090935,
      "lon": -81.5543155,
      "tags": {
        "amenity": "bar",
        "name": "Johnny J's Pub"
      }
    },
    {
      "type": "node",
      "id": 5047063445,
      "lat": 40.9971912,
      "lon": -81.5569864,
      "tags": {
        "amenity": "ice_cream",
        "name": "Dav's Creamery"
      }
    },
    {
      "type": "node",
      "id": 5049706124,
      "lat": 41.1467506,
      "lon": -81.50664,
      "tags": {
        "addr:city": "Cuyahoga Falls",
        "addr:housenumber": "2687",
        "addr:postcode": "44223",
        "addr:state": "OH",
        "addr:street": "State Road",
        "amenity": "cafe",
        "branch": "Market District Cuyahoga Falls",
        "brand": "Starbucks",
        "brand:wikidata": "Q37158",
        "cuisine": "coffee_shop",
        "name": "Starbucks",
        "name:en": "Starbucks",
        "official_name": "Starbucks Coffee",
        "phone": "+1 330-928-6669",
        "ref": "1010398",
        "takeaway": "yes",
        "website": "https://www.starbucks.com/store-locator/store/1010398/market-district-cuyahoga-falls-2687-state-rd-cuyahoga-falls-oh-44223-us"
      }
    },
    {
      "type": "node",
      "id": 5105681445,
      "lat": 40.9016163,
      "lon": -81.1248583,
      "tags": {
        "name": "Heggy's",
        "shop": "confectionery"
      }
    },
    {
      "type": "node",
      "id": 5107932521,
      "lat": 40.9020296,
      "lon": -81.1182345,
      "tags": {
        "addr:city": "Alliance",
        "addr:housenumber": "935",
        "addr:postcode": "44601",
        "addr:state": "OH",
        "addr:street": "West State Street",
        "amenity": "restaurant",
        "cuisine": "american",
        "name": "College Inn Restaurant",
        "website": "https://collegeinnalliance.com/"
      }
    },
    {
      "type": "node",
      "id": 5163597149,
      "lat": 41.1523998,
      "lon": -81.3569235,
      "tags": {
        "amenity": "public_bookcase"
      }
    },
    {
      "type": "node",
      "id": 5163597150,
      "lat": 41.1522838,
      "lon": -81.3569247,
      "tags": {
        "amenity": "public_bookcase"
      }
    },
    {
      "type": "node",
      "id": 5229332772,
      "lat": 41.1138063,
      "lon": -81.578394,
      "tags": {
        "addr:city": "Akron",
        "addr:housenumber": "1971",
        "addr:postcode": "44313",
        "addr:state": "OH",
        "addr:street": "West Market Street",
        "amenity": "cafe",
        "branch": "West Market Street",
        "brand": "Starbucks",
        "brand:wikidata": "Q37158",
        "cuisine": "coffee_shop",
        "internet_access": "yes",
        "name": "Starbucks",
        "official_name": "Starbucks Coffee",
        "phone": "+1 330-869-4909",
        "ref": "1015905",
        "takeaway": "yes",
        "website": "https://www.starbucks.com/store-locator/store/1015905/west-market-street-1971-west-market-st-akron-oh-443136910-us"
      }
    },
    {
      "type": "node",
      "id": 5249598528,
      "lat": 41.0856632,
      "lon": -81.5154462,
      "tags": {
        "addr:city": "Akron",
        "addr:housenumber": "30",
        "addr:postcode": "44308",
        "addr:state": "OH",
        "addr:street": "North High Street",
        "addr:unit": "90",
        "amenity": "ice_cream",
        "name": "Chill Artisan Ice Cream"
      }
    },
    {
      "type": "node",
      "id": 5249598535,
      "lat": 41.0853984,
      "lon": -81.5155233,
      "tags": {
        "addr:city": "Akron",
        "addr:housenumber": "20",
        "addr:postcode": "44308",
        "addr:state": "OH",
        "addr:street": "North High Street",
        "amenity": "bar",
        "check_date": "2025-09-21",
        "name": "High Street Hop House",
        "phone": "+1-330-794-5685",
        "website": "https://www.hophouse.bar/"
      }
    },
    {
      "type": "node",
      "id": 5261013138,
      "lat": 41.1658249,
      "lon": -81.4409098,
      "tags": {
        "amenity": "restaurant",
        "name": "Beef 'O' Brady's",
        "wheelchair": "limited"
      }
    },
    {
      "type": "node",
      "id": 5262293521,
      "lat": 41.1005768,
      "lon": -81.4375317,
      "tags": {
        "amenity": "restaurant",
        "cuisine": "chinese",
        "name": "Golden Place",
        "opening_hours": "Mo-Th 11:00-22:00; Fr-Sa 11:00-23:00; Su 12:00-22:00"
      }
    },
    {
      "type": "node",
      "id": 5270424222,
      "lat": 40.9012221,
      "lon": -81.1109078,
      "tags": {
        "amenity": "fast_food",
        "brand": "Jersey Mike's Subs",
        "brand:wikidata": "Q6184897",
        "cuisine": "sandwich",
        "indoor_seating": "yes",
        "name": "Jersey Mike's Subs",
        "opening_hours": "Mo-Su 10:00-21:00",
        "outdoor_seating": "yes",
        "short_name": "Jersey Mike's",
        "takeaway": "yes",
        "website": "https://www.jerseymikes.com/2069/alliance-oh"
      }
    },
    {
      "type": "node",
      "id": 5270983723,
      "lat": 41.1183593,
      "lon": -81.5878459,
      "tags": {
        "amenity": "restaurant",
        "cuisine": "pizza",
        "internet_access": "wlan",
        "name": "Pavonas Pizza"
      }
    },
    {
      "type": "node",
      "id": 5282899821,
      "lat": 41.10589,
      "lon": -81.2412798,
      "tags": {
        "amenity": "restaurant",
        "cuisine": "pizza",
        "name": "Caporalettis pizza"
      }
    },
    {
      "type": "node",
      "id": 5294863076,
      "lat": 41.0769275,
      "lon": -81.5106743,
      "tags": {
        "addr:city": "Akron",
        "addr:housenumber": "302",
        "addr:postcode": "44325",
        "addr:state": "OH",
        "addr:street": "Buchetel Common",
        "addr:unit": "RDH",
        "amenity": "cafe",
        "branch": "University Of Akron Library",
        "brand": "Starbucks",
        "brand:wikidata": "Q37158",
        "cuisine": "coffee_shop",
        "internet_access": "yes",
        "internet_access:fee": "no",
        "name": "Starbucks",
        "official_name": "Starbucks Coffee",
        "phone": "+1 330-972-7035",
        "takeaway": "yes",
        "website": "https://www.starbucks.com/store-locator/store/1015710/university-of-akron-library-315-buchtel-commons-rdh-akron-oh-443250002-us"
      }
    },
    {
      "type": "node",
      "id": 5300908857,
      "lat": 41.0961914,
      "lon": -81.4884606,
      "tags": {
        "amenity": "restaurant",
        "name": "Fred's Dinner"
      }
    },
    {
      "type": "node",
      "id": 5300908879,
      "lat": 41.1195962,
      "lon": -81.4722709,
      "tags": {
        "addr:city": "Cuyahoga Falls",
        "addr:housenumber": "753",
        "addr:postcode": "44221",
        "addr:state": "OH",
        "addr:street": "Howe Avenue",
        "addr:unit": "F",
        "amenity": "fast_food",
        "branch": "Cuyahoga Falls",
        "brand": "Five Guys",
        "brand:wikidata": "Q1131810",
        "cuisine": "burger",
        "name": "Five Guys",
        "official_name": "Five Guys Burgers and Fries",
        "opening_hours": "11:00-21:30",
        "phone": "+1 330-920-9444",
        "takeaway": "yes",
        "website": "https://restaurants.fiveguys.com/753-howe-ave"
      }
    },
    {
      "type": "node",
      "id": 5302770046,
      "lat": 41.0756305,
      "lon": -81.5117943,
      "tags": {
        "addr:housenumber": "303",
        "addr:postcode": "44325",
        "addr:state": "OH",
        "amenity": "cafe",
        "branch": "University of Akron Student Union",
        "brand": "Starbucks",
        "brand:wikidata": "Q37158",
        "cuisine": "coffee_shop",
        "name": "Starbucks",
        "official_name": "Starbucks Coffee",
        "phone": "+1 330-972-7111",
        "ref": "8933",
        "takeaway": "yes",
        "website": "https://www.starbucks.com/store-locator/store/8933/university-of-akron-student-un-303-carroll-st-akron-oh-443250016-us"
      }
    },
    {
      "type": "node",
      "id": 5302770047,
      "lat": 41.0757255,
      "lon": -81.5124596,
      "tags": {
        "amenity": "restaurant",
        "name": "Union Market"
      }
    },
    {
      "type": "node",
      "id": 5302770048,
      "lat": 41.0755961,
      "lon": -81.513066,
      "tags": {
        "addr:city": "Akron",
        "addr:housenumber": "303",
        "addr:postcode": "44325",
        "addr:state": "OH",
        "addr:street": "Carroll Street",
        "amenity": "fast_food",
        "branch": "University Of Akron",
        "brand": "Qdoba",
        "brand:wikidata": "Q1363885",
        "cuisine": "mexican",
        "name": "Qdoba",
        "official_name": "Qdoba Mexican Grill",
        "opening_hours": "Mo-Fr 10:30-16:00",
        "phone": "+1 888-736-2224",
        "takeaway": "yes",
        "website": "https://locations.qdoba.com/us/oh/akron/univ-of-akron-student-union.html"
      }
    },
    {
      "type": "node",
      "id": 5302770049,
      "lat": 41.0756547,
      "lon": -81.5129801,
      "tags": {
        "addr:city": "Akron",
        "addr:housenumber": "303",
        "addr:postcode": "44325",
        "addr:state": "OH",
        "addr:street": "Carroll Street",
        "amenity": "fast_food",
        "branch": "University of Akron",
        "brand": "Panda Express",
        "brand:wikidata": "Q1358690",
        "cuisine": "chinese",
        "name": "Panda Express",
        "opening_hours": "Mo-Fr 10:30-16:00",
        "phone": "+1 330-972-7688",
        "takeaway": "yes",
        "website": "https://www.pandaexpress.com/locations/oh/akron/2643"
      }
    },
    {
      "type": "node",
      "id": 5302770050,
      "lat": 41.0757619,
      "lon": -81.5129587,
      "tags": {
        "amenity": "fast_food",
        "brand": "Auntie Anne's",
        "brand:wikidata": "Q4822010",
        "cuisine": "pretzel",
        "name": "Auntie Anne's",
        "takeaway": "yes"
      }
    },
    {
      "type": "node",
      "id": 5313800522,
      "lat": 41.027603,
      "lon": -81.510787,
      "tags": {
        "addr:city": "Akron",
        "addr:housenumber": "440",
        "addr:postcode": "44319",
        "addr:state": "OH",
        "addr:street": "East Waterloo Road",
        "amenity": "fast_food",
        "brand": "Burger King",
        "brand:wikidata": "Q177054",
        "cuisine": "burger",
        "delivery": "yes",
        "drive_through": "yes",
        "internet_access": "wlan",
        "name": "Burger King",
        "opening_hours": "Mo-Sa 06:30-20:00; Su 07:00-20:00",
        "phone": "+1 330-785-0401",
        "ref": "7803",
        "takeaway": "yes",
        "website": "https://www.bk.com/store-locator/store/restaurant_4457"
      }
    },
    {
      "type": "node",
      "id": 5326450943,
      "lat": 41.072871,
      "lon": -81.5133278,
      "tags": {
        "amenity": "fast_food",
        "brand": "Penn Station",
        "brand:wikidata": "Q7163311",
        "cuisine": "sandwich",
        "name": "Penn Station",
        "takeaway": "yes"
      }
    },
    {
      "type": "node",
      "id": 5326450944,
      "lat": 41.0728528,
      "lon": -81.5132759,
      "tags": {
        "amenity": "fast_food",
        "name": "Panda"
      }
    },
    {
      "type": "node",
      "id": 5326450945,
      "lat": 41.0728349,
      "lon": -81.5132238,
      "tags": {
        "amenity": "fast_food",
        "name": "Pulp"
      }
    },
    {
      "type": "node",
      "id": 5326450946,
      "lat": 41.0727664,
      "lon": -81.513039,
      "tags": {
        "amenity": "ice_cream",
        "name": "Bubbles & Puffles"
      }
    },
    {
      "type": "node",
      "id": 5326450947,
      "lat": 41.0728076,
      "lon": -81.5131479,
      "tags": {
        "addr:city": "Akron",
        "addr:housenumber": "282",
        "addr:postcode": "44304",
        "addr:state": "OH",
        "addr:street": "East Exchange Street",
        "amenity": "fast_food",
        "branch": "282 East Exchange St.",
        "brand": "Five Guys",
        "brand:wikidata": "Q1131810",
        "cuisine": "burger",
        "name": "Five Guys",
        "official_name": "Five Guys Burgers and Fries",
        "opening_hours": "11:00-21:30",
        "phone": "+1 234-571-5022",
        "takeaway": "yes",
        "website": "https://restaurants.fiveguys.com/282-e-exchange-st"
      }
    },
    {
      "type": "node",
      "id": 5345935721,
      "lat": 41.1129906,
      "lon": -81.5777675,
      "tags": {
        "addr:city": "Akron",
        "addr:housenumber": "1940",
        "addr:postcode": "44313",
        "addr:state": "OH",
        "addr:street": "West Market Street",
        "amenity": "fast_food",
        "brand": "Taco Bell",
        "brand:wikidata": "Q752941",
        "cuisine": "tex-mex",
        "name": "Taco Bell",
        "opening_hours": "07:00-03:00",
        "phone": "+1 330-835-1359",
        "takeaway": "yes",
        "website": "https://locations.tacobell.com/oh/akron/1940-w--market-st.html"
      }
    },
    {
      "type": "node",
      "id": 5351450530,
      "lat": 41.1504636,
      "lon": -81.3598898,
      "tags": {
        "amenity": "restaurant",
        "name": "The Pub"
      }
    },
    {
      "type": "node",
      "id": 5353119621,
      "lat": 41.0602321,
      "lon": -81.4546648,
      "tags": {
        "addr:city": "Akron",
        "addr:housenumber": "2068",
        "addr:postcode": "44312",
        "addr:state": "OH",
        "addr:street": "East Market Street",
        "amenity": "fast_food",
        "brand": "Subway",
        "brand:wikidata": "Q244457",
        "cuisine": "sandwich",
        "name": "Subway",
        "opening_hours": "09:00-22:00",
        "phone": "+1 330-805-4504",
        "takeaway": "yes",
        "website": "https://restaurants.subway.com/united-states/oh/akron/2068-e-market-st"
      }
    },
    {
      "type": "node",
      "id": 5353293226,
      "lat": 41.1110229,
      "lon": -81.5695716,
      "tags": {
        "amenity": "restaurant",
        "cuisine": "italian",
        "name": "Piada",
        "outdoor_seating": "yes",
        "wheelchair": "yes"
      }
    },
    {
      "type": "node",
      "id": 5353567683,
      "lat": 41.0227746,
      "lon": -81.589248,
      "tags": {
        "amenity": "restaurant",
        "name": "Remarkable Diner"
      }
    },
    {
      "type": "node",
      "id": 5353567684,
      "lat": 41.0100961,
      "lon": -81.5876108,
      "tags": {
        "amenity": "fast_food",
        "brand": "Little Caesars",
        "brand:wikidata": "Q1393809",
        "cuisine": "pizza",
        "name": "Little Caesars",
        "takeaway": "yes",
        "website": "https://littlecaesars.com/en-us/store/11196/"
      }
    },
    {
      "type": "node",
      "id": 5359313221,
      "lat": 40.9013432,
      "lon": -81.1005357,
      "tags": {
        "addr:city": "Alliance",
        "addr:housenumber": "337",
        "addr:postcode": "44601",
        "addr:state": "OH",
        "addr:street": "East State Street",
        "amenity": "restaurant",
        "cuisine": "chinese",
        "name": "New China",
        "website": "https://us.chinesemenu.com/m/101332176.htm"
      }
    },
    {
      "type": "node",
      "id": 5361727123,
      "lat": 40.9010571,
      "lon": -81.1516082,
      "tags": {
        "amenity": "restaurant",
        "name": "China Buffet"
      }
    },